{"_id":{"$oid":"590093c75e986a05ba0d947a"},"second hand resource":"72","longtitude":"116.23045349121094","court":"碧桐园","address":"田村路南阜石路69号","house type":"住宅","latitude":"39.935245513916016","href":"https://m.fang.com/xiaoqu/bj/1010168587.html","average price":"71629","second hand trading":"63","build time":"2008","district":"海淀"}
{"_id":{"$oid":"590093cb5e986a05ba0d947b"},"second hand resource":"77","longtitude":"116.15270233154297","court":"前沙涧","address":"苏家坨镇聂各庄东路北侧","house type":"住宅","latitude":"40.11656188964844","href":"https://m.fang.com/xiaoqu/bj/1010607025.html","average price":"40171","second hand trading":"1","build time":"2000","district":"海淀"}
{"_id":{"$oid":"590093cc5e986a05ba0d947c"},"second hand resource":"78","longtitude":"116.31295776367188","court":"华澳中心","address":"紫竹院路31号","house type":"住宅","latitude":"39.95012664794922","href":"https://m.fang.com/xiaoqu/bj/1010206791.html","average price":"75067","second hand trading":"77","build time":"2001","district":"海淀"}
{"_id":{"$oid":"590093cd5e986a05ba0d947d"},"second hand resource":"20","longtitude":"116.19055938720703","court":"正源尚峰尚水","address":"海淀温泉镇温泉政府附近","house type":"住宅","latitude":"40.05185317993164","href":"https://m.fang.com/xiaoqu/bj/1010187145.html","average price":"65257","second hand trading":"71","build time":"2015","district":"海淀"}
{"_id":{"$oid":"590093cf5e986a05ba0d947e"},"second hand resource":"1","longtitude":"116.32439422607422","court":"尚品公寓","address":"上地信息产业基地环岛东南处","house type":"住宅","latitude":"40.0373420715332","href":"https://m.fang.com/xiaoqu/bj/1010079061.html","average price":"78953","second hand trading":"19","build time":"2001","district":"海淀"}
{"_id":{"$oid":"590093d05e986a05ba0d947f"},"second hand resource":"310","longtitude":"116.33345031738281","court":"上林溪","address":"京新上地桥安宁庄东路","house type":"住宅","latitude":"40.05337905883789","href":"https://m.fang.com/xiaoqu/bj/1010378463.html","average price":"80721","second hand trading":"104","build time":"2012","district":"海淀"}
{"_id":{"$oid":"590093d25e986a05ba0d9480"},"second hand resource":"57","longtitude":"116.38426208496094","court":"中鑫嘉园","address":"小关西后街东侧","house type":"住宅","latitude":"39.98606872558594","href":"https://m.fang.com/xiaoqu/bj/1010010066.html","average price":"97818","second hand trading":"212","build time":"2004","district":"海淀"}
{"_id":{"$oid":"590093d85e986a05ba0d9481"},"second hand resource":"15","longtitude":"116.27967071533203","court":"唐家岭新城","address":"海淀区友谊路与土井村路交叉口西北侧(中国管理软件学院西侧)","house type":"住宅","latitude":"40.07087326049805","href":"https://m.fang.com/xiaoqu/bj/1010605743.html","average price":"51629","second hand trading":"NULL","build time":"2011","district":"海淀"}
{"_id":{"$oid":"590093d95e986a05ba0d9482"},"second hand resource":"7","longtitude":"116.2585220336914","court":"六里屯小区","address":"西北旺永丰路与丰滢东路交叉路口东南侧(中联硅谷南侧)","house type":"住宅","latitude":"40.0723762512207","href":"https://m.fang.com/xiaoqu/bj/1010184505.html","average price":"43635","second hand trading":"NULL","build time":"2013","district":"海淀"}
{"_id":{"$oid":"590093da5e986a05ba0d9483"},"second hand resource":"72","longtitude":"116.23045349121094","court":"西山洋房","address":"田村路南阜石路69号","house type":"住宅","latitude":"39.935245513916016","href":"https://m.fang.com/xiaoqu/bj/1010168587.html","average price":"71629","second hand trading":"63","build time":"2008","district":"海淀"}
{"_id":{"$oid":"590093dc5e986a05ba0d9484"},"second hand resource":"15","longtitude":"116.27967071533203","court":"唐家岭","address":"海淀区友谊路与土井村路交叉口西北侧(中国管理软件学院西侧)","house type":"住宅","latitude":"40.07087326049805","href":"https://m.fang.com/xiaoqu/bj/1010605743.html","average price":"51629","second hand trading":"NULL","build time":"2011","district":"海淀"}
{"_id":{"$oid":"590093dd5e986a05ba0d9485"},"second hand resource":"32","longtitude":"116.37545776367188","court":"五月华庭","address":"西直门文慧园路6号","house type":"住宅","latitude":"39.95828628540039","href":"https://m.fang.com/xiaoqu/bj/1010170375.html","average price":"90542","second hand trading":"107","build time":"2003","district":"海淀"}
{"_id":{"$oid":"590093de5e986a05ba0d9486"},"second hand resource":"92","longtitude":"116.28316497802734","court":"正源定慧福里","address":"八里庄路62号院定慧福里","house type":"住宅","latitude":"39.93571853637695","href":"https://m.fang.com/xiaoqu/bj/1010576343.html","average price":"73500","second hand trading":"165","build time":"2010","district":"海淀"}
{"_id":{"$oid":"590093df5e986a05ba0d9487"},"second hand resource":"4","longtitude":"116.27149963378906","court":"长银大厦公寓","address":"永定路88号","house type":"住宅","latitude":"39.9112434387207","href":"https://m.fang.com/xiaoqu/bj/1010123017.html","average price":"35702","second hand trading":"NULL","build time":"NULL","district":"海淀"}
{"_id":{"$oid":"590093e35e986a05ba0d9488"},"second hand resource":"98","longtitude":"116.3235855102539","court":"上第moma","address":"上地安宁庄西路9号","house type":"住宅","latitude":"40.05070114135742","href":"https://m.fang.com/xiaoqu/bj/1010710833.html","average price":"75299","second hand trading":"133","build time":"2011","district":"海淀"}
{"_id":{"$oid":"590093ea5e986a05ba0d9489"},"second hand resource":"81","longtitude":"116.37222290039062","court":"志强北园","address":"文慧园路北侧(小西天牌楼西侧200米处)","house type":"住宅","latitude":"39.95901870727539","href":"https://m.fang.com/xiaoqu/bj/1010197291.html","average price":"85566","second hand trading":"419","build time":"1990","district":"海淀"}
{"_id":{"$oid":"590093f05e986a05ba0d948a"},"second hand resource":"26","longtitude":"116.23836517333984","court":"颐丰庄园","address":"永丰乡大牛坊小学附近","house type":"住宅","latitude":"40.089683532714844","href":"https://m.fang.com/xiaoqu/bj/1010000974.html","average price":"49738","second hand trading":"1","build time":"2002","district":"海淀"}
{"_id":{"$oid":"590093f25e986a05ba0d948b"},"second hand resource":"215","longtitude":"116.34233856201172","court":"清河毛纺厂南小区","address":"毛纺路西侧,朱房路南侧","house type":"住宅","latitude":"40.0325813293457","href":"https://m.fang.com/xiaoqu/bj/1010486743.html","average price":"63964","second hand trading":"206","build time":"1997","district":"海淀"}
{"_id":{"$oid":"590093f45e986a05ba0d948c"},"second hand resource":"64","longtitude":"116.33671569824219","court":"上奥世纪中心","address":"八达岭高速路西三旗桥东北角","house type":"住宅","latitude":"40.06235885620117","href":"https://m.fang.com/xiaoqu/bj/1010163783.html","average price":"46381","second hand trading":"119","build time":"2011","district":"海淀"}
{"_id":{"$oid":"590093f65e986a05ba0d948d"},"second hand resource":"6","longtitude":"116.24744415283203","court":"溪山嘉园","address":"旱河路131号院","house type":"住宅","latitude":"39.96184539794922","href":"https://m.fang.com/xiaoqu/bj/1010675229.html","average price":"42501","second hand trading":"NULL","build time":"2004","district":"海淀"}
{"_id":{"$oid":"590093f75e986a05ba0d948e"},"second hand resource":"137","longtitude":"116.36200714111328","court":"建材城西二里","address":"西三旗环岛东侧2000米","house type":"住宅","latitude":"40.06796646118164","href":"https://m.fang.com/xiaoqu/bj/1010198109.html","average price":"58578","second hand trading":"193","build time":"1994","district":"海淀"}
{"_id":{"$oid":"590093fb5e986a05ba0d948f"},"second hand resource":"54","longtitude":"116.27831268310547","court":"自由度","address":"田村路8号(西四环外向西200米)","house type":"住宅","latitude":"39.93362045288086","href":"https://m.fang.com/xiaoqu/bj/1010011909.html","average price":"58142","second hand trading":"15","build time":"2002","district":"海淀"}
{"_id":{"$oid":"590093fe5e986a05ba0d9490"},"second hand resource":"69","longtitude":"116.35784149169922","court":"蓟门北里","address":"罗庄南路北侧,中关村中学分校西侧","house type":"住宅","latitude":"39.97757339477539","href":"https://m.fang.com/xiaoqu/bj/1010574705.html","average price":"101555","second hand trading":"158","build time":"1982","district":"海淀"}
{"_id":{"$oid":"590094005e986a05ba0d9491"},"second hand resource":"128","longtitude":"116.38070678710938","court":"硅谷先锋","address":"建材城东一里","house type":"住宅","latitude":"40.068199157714844","href":"https://m.fang.com/xiaoqu/bj/1010024196.html","average price":"67057","second hand trading":"3","build time":"2002","district":"海淀"}
{"_id":{"$oid":"590094025e986a05ba0d9492"},"second hand resource":"349","longtitude":"116.32675170898438","court":"双榆树北里","address":"中关村南大街40号","house type":"住宅","latitude":"39.97751235961914","href":"https://m.fang.com/xiaoqu/bj/1010196925.html","average price":"94322","second hand trading":"333","build time":"1982","district":"海淀"}
{"_id":{"$oid":"590094045e986a05ba0d9493"},"second hand resource":"82","longtitude":"116.33465576171875","court":"安宁佳园","address":"西三旗安宁东路安宁佳园","house type":"住宅","latitude":"40.05654525756836","href":"https://m.fang.com/xiaoqu/bj/1010308715.html","average price":"86707","second hand trading":"249","build time":"2007","district":"海淀"}
{"_id":{"$oid":"590094065e986a05ba0d9494"},"second hand resource":"18","longtitude":"116.25862884521484","court":"椿楸嘉园","address":"永定河路与旱河路交叉口东南侧","house type":"住宅","latitude":"39.943260192871094","href":"https://m.fang.com/xiaoqu/bj/1010760725.html","average price":"45555","second hand trading":"20","build time":"2014","district":"海淀"}
{"_id":{"$oid":"590094095e986a05ba0d9495"},"second hand resource":"48","longtitude":"116.35807800292969","court":"蓟门南里","address":"北三环西路北侧首都体育学院东","house type":"住宅","latitude":"39.97390365600586","href":"https://m.fang.com/xiaoqu/bj/1010577305.html","average price":"95645","second hand trading":"112","build time":"2000","district":"海淀"}
{"_id":{"$oid":"5900940c5e986a05ba0d9496"},"second hand resource":"51","longtitude":"116.36650848388672","court":"怡清园","address":"清河永泰庄甲19号东侧","house type":"住宅","latitude":"40.04356384277344","href":"https://m.fang.com/xiaoqu/bj/1010023420.html","average price":"66805","second hand trading":"90","build time":"2003","district":"海淀"}
{"_id":{"$oid":"590094145e986a05ba0d9497"},"second hand resource":"125","longtitude":"116.27693176269531","court":"复兴路79号院","address":"复兴路79号院","house type":"住宅","latitude":"39.91509246826172","href":"https://m.fang.com/xiaoqu/bj/1010339637.html","average price":"86288","second hand trading":"80","build time":"1998","district":"海淀"}
{"_id":{"$oid":"590094165e986a05ba0d9498"},"second hand resource":"163","longtitude":"116.27020263671875","court":"永定路1号院","address":"永定路阜石路西北角,永定路1号","house type":"住宅","latitude":"39.93124771118164","href":"https://m.fang.com/xiaoqu/bj/1010374709.html","average price":"83344","second hand trading":"43","build time":"1999","district":"海淀"}
{"_id":{"$oid":"590094175e986a05ba0d9499"},"second hand resource":"14","longtitude":"116.23310089111328","court":"巨山馨苑","address":"四季青镇巨山路","house type":"住宅","latitude":"39.94916915893555","href":"https://m.fang.com/xiaoqu/bj/1010823371.html","average price":"38621","second hand trading":"NULL","build time":"2007","district":"海淀"}
{"_id":{"$oid":"5900941a5e986a05ba0d949a"},"second hand resource":"40","longtitude":"116.2661361694336","court":"田村路40号","address":"北京市海淀区田村路40号","house type":"住宅","latitude":"39.93421173095703","href":"https://m.fang.com/xiaoqu/bj/1010657605.html","average price":"68775","second hand trading":"83","build time":"1989","district":"海淀"}
{"_id":{"$oid":"5900941f5e986a05ba0d949b"},"second hand resource":"99","longtitude":"116.25211334228516","court":"玉泉西街","address":"玉泉西街甲11-3","house type":"住宅","latitude":"39.91602325439453","href":"https://m.fang.com/xiaoqu/bj/1010503025.html","average price":"64517","second hand trading":"1","build time":"2000","district":"海淀"}
{"_id":{"$oid":"590094215e986a05ba0d949c"},"second hand resource":"41","longtitude":"116.27593231201172","court":"常青园","address":"北京市海淀区四季青桥常青园路","house type":"住宅","latitude":"39.96107864379883","href":"https://m.fang.com/xiaoqu/bj/1010607503.html","average price":"55021","second hand trading":"NULL","build time":"2000","district":"海淀"}
{"_id":{"$oid":"590094235e986a05ba0d949d"},"second hand resource":"254","longtitude":"116.25733184814453","court":"兰德华庭","address":"阜石路35号","house type":"住宅","latitude":"39.93427658081055","href":"https://m.fang.com/xiaoqu/bj/1010038821.html","average price":"84380","second hand trading":"100","build time":"2003","district":"海淀"}
{"_id":{"$oid":"590094255e986a05ba0d949e"},"second hand resource":"18","longtitude":"116.25862884521484","court":"椿楸家园","address":"永定河路与旱河路交叉口东南侧","house type":"住宅","latitude":"39.943260192871094","href":"https://m.fang.com/xiaoqu/bj/1010760725.html","average price":"45555","second hand trading":"20","build time":"2014","district":"海淀"}
{"_id":{"$oid":"590094275e986a05ba0d949f"},"second hand resource":"122","longtitude":"116.352294921875","court":"罗庄东里","address":"知春路南侧,校园南路西侧","house type":"住宅","latitude":"39.980506896972656","href":"https://m.fang.com/xiaoqu/bj/1010232503.html","average price":"87065","second hand trading":"111","build time":"1995","district":"海淀"}
{"_id":{"$oid":"590094285e986a05ba0d94a0"},"second hand resource":"491","longtitude":"116.34989166259766","court":"罗庄西里","address":"知春路与罗庄西路交汇处南行100米路东","house type":"住宅","latitude":"39.979312896728516","href":"https://m.fang.com/xiaoqu/bj/1010216241.html","average price":"84607","second hand trading":"271","build time":"1995","district":"海淀"}
{"_id":{"$oid":"590094295e986a05ba0d94a1"},"second hand resource":"49","longtitude":"116.256591796875","court":"北坞嘉园","address":"闵庄路闵庄站向北100米","house type":"住宅","latitude":"39.98643112182617","href":"https://m.fang.com/xiaoqu/bj/1010677753.html","average price":"67951","second hand trading":"39","build time":"2010","district":"海淀"}
{"_id":{"$oid":"5900942b5e986a05ba0d94a2"},"second hand resource":"120","longtitude":"116.37027740478516","court":"石油大院","address":"海淀区学院路20号院","house type":"住宅","latitude":"40.00169372558594","href":"https://m.fang.com/xiaoqu/bj/1010216531.html","average price":"102731","second hand trading":"157","build time":"2001","district":"海淀"}
{"_id":{"$oid":"5900942f5e986a05ba0d94a3"},"second hand resource":"41","longtitude":"116.27593231201172","court":"常青园一区","address":"北京市海淀区四季青桥常青园路","house type":"住宅","latitude":"39.96107864379883","href":"https://m.fang.com/xiaoqu/bj/1010607503.html","average price":"55021","second hand trading":"NULL","build time":"2000","district":"海淀"}
{"_id":{"$oid":"590094325e986a05ba0d94a4"},"second hand resource":"201","longtitude":"116.36370086669922","court":"知本时代","address":"西三旗环岛东2000米","house type":"住宅","latitude":"40.06990051269531","href":"https://m.fang.com/xiaoqu/bj/1010033834.html","average price":"61653","second hand trading":"221","build time":"2004","district":"海淀"}
{"_id":{"$oid":"590094355e986a05ba0d94a5"},"second hand resource":"75","longtitude":"116.37891387939453","court":"建材城东一里","address":"西三旗建材城东路北侧","house type":"住宅","latitude":"40.068668365478516","href":"https://m.fang.com/xiaoqu/bj/1010198111.html","average price":"61101","second hand trading":"128","build time":"2000","district":"海淀"}
{"_id":{"$oid":"5900943a5e986a05ba0d94a6"},"second hand resource":"1331","longtitude":"116.22391510009766","court":"保利西山林语","address":"西北旺镇冷泉村","house type":"住宅","latitude":"40.04527282714844","href":"https://m.fang.com/xiaoqu/bj/1010326553.html","average price":"69020","second hand trading":"584","build time":"2010","district":"海淀"}
{"_id":{"$oid":"5900943d5e986a05ba0d94a7"},"second hand resource":"160","longtitude":"116.36289978027344","court":"永泰西里","address":"地铁永泰庄站西南角","house type":"住宅","latitude":"40.03898620605469","href":"https://m.fang.com/xiaoqu/bj/1010197245.html","average price":"72171","second hand trading":"221","build time":"1996","district":"海淀"}
{"_id":{"$oid":"590094405e986a05ba0d94a8"},"second hand resource":"219","longtitude":"116.25635528564453","court":"碧森里","address":"田村旱河路阜石路交叉口","house type":"住宅","latitude":"39.93981170654297","href":"https://m.fang.com/xiaoqu/bj/1010302669.html","average price":"89245","second hand trading":"84","build time":"2004","district":"海淀"}
{"_id":{"$oid":"590094435e986a05ba0d94a9"},"second hand resource":"51","longtitude":"116.23480987548828","court":"西六建材工贸宿舍","address":"海淀区亮甲店大桥往西1公里","house type":"住宅","latitude":"40.05692672729492","href":"https://m.fang.com/xiaoqu/bj/1010590623.html","average price":"54273","second hand trading":"23","build time":"1988","district":"海淀"}
{"_id":{"$oid":"590094445e986a05ba0d94aa"},"second hand resource":"13","longtitude":"116.29962158203125","court":"京投银泰琨御府","address":"蓝靛厂南路与玲珑路交汇处西北角,昆玉河岸西侧","house type":"住宅","latitude":"39.939876556396484","href":"https://m.fang.com/xiaoqu/bj/1010751523.html","average price":"126299","second hand trading":"NULL","build time":"2018","district":"海淀"}
{"_id":{"$oid":"590094475e986a05ba0d94ab"},"second hand resource":"7","longtitude":"116.3489761352539","court":"文林大厦","address":"四道口皂君庙1号,大钟寺国际广场南行150米","house type":"住宅","latitude":"39.96818161010742","href":"https://m.fang.com/xiaoqu/bj/1010216293.html","average price":"79134","second hand trading":"47","build time":"2001","district":"海淀"}
{"_id":{"$oid":"590094485e986a05ba0d94ac"},"second hand resource":"25","longtitude":"116.36563873291016","court":"高巢","address":"龙岗路35号","house type":"住宅","latitude":"40.03663635253906","href":"https://m.fang.com/xiaoqu/bj/1010054814.html","average price":"72790","second hand trading":"82","build time":"2005","district":"海淀"}
{"_id":{"$oid":"5900944a5e986a05ba0d94ad"},"second hand resource":"279","longtitude":"116.34945678710938","court":"展春园","address":"北四环中路279号","house type":"住宅","latitude":"39.99340057373047","href":"https://m.fang.com/xiaoqu/bj/1010170435.html","average price":"101120","second hand trading":"324","build time":"1988","district":"海淀"}
{"_id":{"$oid":"5900944e5e986a05ba0d94ae"},"second hand resource":"136","longtitude":"116.31768798828125","court":"三义庙小区","address":"北三环西路辅路与苏州桥交汇处东行200米(北京理工大学北区东侧)","house type":"住宅","latitude":"39.97136688232422","href":"https://m.fang.com/xiaoqu/bj/1010308727.html","average price":"102104","second hand trading":"275","build time":"1997","district":"海淀"}
{"_id":{"$oid":"590094505e986a05ba0d94af"},"second hand resource":"50","longtitude":"116.36624145507812","court":"红联村","address":"文慧园斜街南侧","house type":"住宅","latitude":"39.95574951171875","href":"https://m.fang.com/xiaoqu/bj/1010216125.html","average price":"90358","second hand trading":"36","build time":"2001","district":"海淀"}
{"_id":{"$oid":"590094515e986a05ba0d94b0"},"second hand resource":"145","longtitude":"116.33988189697266","court":"青云北区","address":"中关村东路与北青云路交汇处西北","house type":"住宅","latitude":"39.97983169555664","href":"https://m.fang.com/xiaoqu/bj/1010375271.html","average price":"93487","second hand trading":"169","build time":"1999","district":"海淀"}
{"_id":{"$oid":"590094545e986a05ba0d94b1"},"second hand resource":"92","longtitude":"116.35462188720703","court":"地质大学家属院","address":"五道口城铁东一百米地质大学院内","house type":"住宅","latitude":"39.99601745605469","href":"https://m.fang.com/xiaoqu/bj/1010500265.html","average price":"94233","second hand trading":"2","build time":"1979","district":"海淀"}
{"_id":{"$oid":"590094555e986a05ba0d94b2"},"second hand resource":"45","longtitude":"116.34566497802734","court":"王庄路27号院","address":"王庄路27号院","house type":"住宅","latitude":"40.00157165527344","href":"https://m.fang.com/xiaoqu/bj/1010524789.html","average price":"92153","second hand trading":"67","build time":"1996","district":"海淀"}
{"_id":{"$oid":"5900945a5e986a05ba0d94b3"},"second hand resource":"41","longtitude":"116.3337173461914","court":"文津国际","address":"中关村东路1号院(清华南门外)","house type":"住宅","latitude":"39.999149322509766","href":"https://m.fang.com/xiaoqu/bj/1010074800.html","average price":"69462","second hand trading":"NULL","build time":"2006","district":"海淀"}
{"_id":{"$oid":"5900945c5e986a05ba0d94b4"},"second hand resource":"166","longtitude":"116.3427505493164","court":"西王庄小区","address":"清华东路西口,清华大学西南门双清路路东","house type":"住宅","latitude":"40.0015754699707","href":"https://m.fang.com/xiaoqu/bj/1010216535.html","average price":"107151","second hand trading":"90","build time":"1995","district":"海淀"}
{"_id":{"$oid":"5900945e5e986a05ba0d94b5"},"second hand resource":"5","longtitude":"116.35567474365234","court":"北京机械工业学院宿舍","address":"清河小营东路12号","house type":"住宅","latitude":"40.04322052001953","href":"https://m.fang.com/xiaoqu/bj/1010611839.html","average price":"66702","second hand trading":"12","build time":"2000","district":"海淀"}
{"_id":{"$oid":"590094615e986a05ba0d94b6"},"second hand resource":"4","longtitude":"116.31586456298828","court":"倒座庙1号院","address":"人民大学北路人大附中附近","house type":"住宅","latitude":"39.97915267944336","href":"https://m.fang.com/xiaoqu/bj/1010736891.html","average price":"70705","second hand trading":"NULL","build time":"NULL","district":"海淀"}
{"_id":{"$oid":"590094635e986a05ba0d94b7"},"second hand resource":"221","longtitude":"116.3572769165039","court":"城华园","address":"学院路林业大学附近","house type":"住宅","latitude":"40.017616271972656","href":"https://m.fang.com/xiaoqu/bj/1010198405.html","average price":"80594","second hand trading":"289","build time":"2000","district":"海淀"}
{"_id":{"$oid":"590094655e986a05ba0d94b8"},"second hand resource":"295","longtitude":"116.30912780761719","court":"芙蓉里","address":"芙蓉里北路北京大学西门","house type":"住宅","latitude":"39.996585845947266","href":"https://m.fang.com/xiaoqu/bj/1010215673.html","average price":"91412","second hand trading":"213","build time":"1995","district":"海淀"}
{"_id":{"$oid":"590094675e986a05ba0d94b9"},"second hand resource":"128","longtitude":"116.2930908203125","court":"燕北园","address":"圆明园西路燕北园","house type":"住宅","latitude":"40.015045166015625","href":"https://m.fang.com/xiaoqu/bj/1010216547.html","average price":"86580","second hand trading":"97","build time":"1998","district":"海淀"}
{"_id":{"$oid":"590094695e986a05ba0d94ba"},"second hand resource":"15","longtitude":"116.34332275390625","court":"紫金数码","address":"知春路城铁西150米","house type":"住宅","latitude":"39.98408508300781","href":"https://m.fang.com/xiaoqu/bj/1010136543.html","average price":"76752","second hand trading":"45","build time":"2006","district":"海淀"}
{"_id":{"$oid":"5900946b5e986a05ba0d94bb"},"second hand resource":"429","longtitude":"116.36637878417969","court":"清缘东里","address":"龙岗路与永泰中路交汇处东行80米路南","house type":"住宅","latitude":"40.03520584106445","href":"https://m.fang.com/xiaoqu/bj/1010054336.html","average price":"79883","second hand trading":"231","build time":"2004","district":"海淀"}
{"_id":{"$oid":"590094705e986a05ba0d94bc"},"second hand resource":"445","longtitude":"116.3081283569336","court":"稻香园","address":"万泉河桥东南角","house type":"住宅","latitude":"39.986778259277344","href":"https://m.fang.com/xiaoqu/bj/1010198589.html","average price":"99867","second hand trading":"406","build time":"1994","district":"海淀"}
{"_id":{"$oid":"590094705e986a05ba0d94bd"},"second hand resource":"263","longtitude":"116.36908721923828","court":"文慧园","address":"文慧园南路2号","house type":"住宅","latitude":"39.955352783203125","href":"https://m.fang.com/xiaoqu/bj/1010014873.html","average price":"109376","second hand trading":"204","build time":"2003","district":"海淀"}
{"_id":{"$oid":"590094765e986a05ba0d94be"},"second hand resource":"28","longtitude":"116.33350372314453","court":"双安青年公寓","address":"北三环西路34号","house type":"住宅","latitude":"39.97248840332031","href":"https://m.fang.com/xiaoqu/bj/1010345743.html","average price":"89670","second hand trading":"8","build time":"2001","district":"海淀"}
{"_id":{"$oid":"5900947b5e986a05ba0d94bf"},"second hand resource":"4","longtitude":"116.38275146484375","court":"电信宿舍","address":"马甸桥西北角电信宿舍北楼","house type":"住宅","latitude":"39.97547149658203","href":"https://m.fang.com/xiaoqu/bj/1010479869.html","average price":"74177","second hand trading":"42","build time":"1988","district":"海淀"}
{"_id":{"$oid":"5900947c5e986a05ba0d94c0"},"second hand resource":"186","longtitude":"116.33796691894531","court":"会城门小区","address":"北蜂窝路与会城门东路交汇处","house type":"住宅","latitude":"39.909427642822266","href":"https://m.fang.com/xiaoqu/bj/1010325883.html","average price":"94194","second hand trading":"157","build time":"1997","district":"海淀"}
{"_id":{"$oid":"590094825e986a05ba0d94c1"},"second hand resource":"66","longtitude":"116.35025024414062","court":"八家嘉苑","address":"海淀区双清路与月泉路交叉口西北角(东升八家郊野公园东南侧)","house type":"住宅","latitude":"40.02116775512695","href":"https://m.fang.com/xiaoqu/bj/1010217669.html","average price":"65898","second hand trading":"39","build time":"2012","district":"海淀"}
{"_id":{"$oid":"590094845e986a05ba0d94c2"},"second hand resource":"9","longtitude":"116.37544250488281","court":"北太平庄路小区","address":"海淀区北太平庄路15号","house type":"住宅","latitude":"39.97957992553711","href":"https://m.fang.com/xiaoqu/bj/1010499749.html","average price":"75053","second hand trading":"67","build time":"1990","district":"海淀"}
{"_id":{"$oid":"590094875e986a05ba0d94c3"},"second hand resource":"18","longtitude":"116.39375305175781","court":"裕民东里","address":"北三环马甸桥北(裕民路)","house type":"住宅","latitude":"39.97956085205078","href":"https://m.fang.com/xiaoqu/bj/1010321983.html","average price":"91687","second hand trading":"61","build time":"1989","district":"海淀"}
{"_id":{"$oid":"590094895e986a05ba0d94c4"},"second hand resource":"28","longtitude":"116.37224578857422","court":"二里庄北里","address":"海淀区志新西路17号","house type":"住宅","latitude":"40.005332946777344","href":"https://m.fang.com/xiaoqu/bj/1010553703.html","average price":"75590","second hand trading":"63","build time":"1994","district":"海淀"}
{"_id":{"$oid":"5900948a5e986a05ba0d94c5"},"second hand resource":"19","longtitude":"116.35470581054688","court":"林大北路9号院","address":"林业大学北路9号院","house type":"住宅","latitude":"40.01405334472656","href":"https://m.fang.com/xiaoqu/bj/1010479823.html","average price":"80362","second hand trading":"109","build time":"2000","district":"海淀"}
{"_id":{"$oid":"5900948c5e986a05ba0d94c6"},"second hand resource":"167","longtitude":"116.28399658203125","court":"北京印象","address":"海淀区定慧寺北里西侧阜成路115号","house type":"住宅","latitude":"39.93178939819336","href":"https://m.fang.com/xiaoqu/bj/1010018521.html","average price":"82296","second hand trading":"90","build time":"2003","district":"海淀"}
{"_id":{"$oid":"5900948e5e986a05ba0d94c7"},"second hand resource":"641","longtitude":"116.33052825927734","court":"双榆树知春里小区","address":"科学院南路与知春路西南角","house type":"住宅","latitude":"39.97871780395508","href":"https://m.fang.com/xiaoqu/bj/1010737447.html","average price":"94963","second hand trading":"516","build time":"1992","district":"海淀"}
{"_id":{"$oid":"590094925e986a05ba0d94c8"},"second hand resource":"13","longtitude":"116.35022735595703","court":"电力宿舍","address":"清河小营桥东100米","house type":"住宅","latitude":"40.04607009887695","href":"https://m.fang.com/xiaoqu/bj/1010598383.html","average price":"64847","second hand trading":"38","build time":"2000","district":"海淀"}
{"_id":{"$oid":"590094955e986a05ba0d94c9"},"second hand resource":"55","longtitude":"116.32658386230469","court":"圆明园东里","address":"圆明园东门","house type":"住宅","latitude":"40.02272415161133","href":"https://m.fang.com/xiaoqu/bj/1010216367.html","average price":"87739","second hand trading":"36","build time":"2001","district":"海淀"}
{"_id":{"$oid":"590094965e986a05ba0d94ca"},"second hand resource":"320","longtitude":"116.31066131591797","court":"大河庄苑","address":"港沟路北侧苏州街3号","house type":"住宅","latitude":"39.98843002319336","href":"https://m.fang.com/xiaoqu/bj/1010074823.html","average price":"101756","second hand trading":"136","build time":"2005","district":"海淀"}
{"_id":{"$oid":"5900949a5e986a05ba0d94cb"},"second hand resource":"10","longtitude":"116.37760925292969","court":"月华轩","address":"北太平庄路2号院内牡丹园环岛东南角","house type":"住宅","latitude":"39.98060607910156","href":"https://m.fang.com/xiaoqu/bj/1010011847.html","average price":"79206","second hand trading":"22","build time":"2002","district":"海淀"}
{"_id":{"$oid":"5900949e5e986a05ba0d94cc"},"second hand resource":"5","longtitude":"116.31383514404297","court":"青年公寓","address":"海淀上地西路38号","house type":"住宅","latitude":"40.04103088378906","href":"https://m.fang.com/xiaoqu/bj/1010215425.html","average price":"93049","second hand trading":"204","build time":"2001","district":"海淀"}
{"_id":{"$oid":"590094a25e986a05ba0d94cd"},"second hand resource":"47","longtitude":"116.31407165527344","court":"紫竹院路小区","address":"紫竹院大东北饭店西侧","house type":"住宅","latitude":"39.948360443115234","href":"https://m.fang.com/xiaoqu/bj/1010322183.html","average price":"94135","second hand trading":"136","build time":"1990","district":"海淀"}
{"_id":{"$oid":"590094a45e986a05ba0d94ce"},"second hand resource":"81","longtitude":"116.21624755859375","court":"门头馨村","address":"香山南路东侧,闵庄路南侧","house type":"住宅","latitude":"39.975711822509766","href":"https://m.fang.com/xiaoqu/bj/1010579345.html","average price":"59654","second hand trading":"125","build time":"2000","district":"海淀"}
{"_id":{"$oid":"590094a55e986a05ba0d94cf"},"second hand resource":"117","longtitude":"116.33615112304688","court":"安宁里小区","address":"清河小营桥西安宁庄东路","house type":"住宅","latitude":"40.05251693725586","href":"https://m.fang.com/xiaoqu/bj/1010001269.html","average price":"68523","second hand trading":"321","build time":"1999","district":"海淀"}
{"_id":{"$oid":"590094a75e986a05ba0d94d0"},"second hand resource":"90","longtitude":"116.360107421875","court":"智慧大厦","address":"学院南路38号","house type":"住宅","latitude":"39.96335220336914","href":"https://m.fang.com/xiaoqu/bj/1010076761.html","average price":"90087","second hand trading":"69","build time":"2005","district":"海淀"}
{"_id":{"$oid":"590094a85e986a05ba0d94d1"},"second hand resource":"98","longtitude":"116.37665557861328","court":"观澳园","address":"清河桥往东900米,南马坊东路与清河交叉处西北角","house type":"住宅","latitude":"40.03965377807617","href":"https://m.fang.com/xiaoqu/bj/1010074390.html","average price":"82389","second hand trading":"107","build time":"2005","district":"海淀"}
{"_id":{"$oid":"590094a95e986a05ba0d94d2"},"second hand resource":"31","longtitude":"116.35196685791016","court":"林大校园内","address":"北京林业大学校园内","house type":"住宅","latitude":"40.007720947265625","href":"https://m.fang.com/xiaoqu/bj/1010595065.html","average price":"95612","second hand trading":"NULL","build time":"2000","district":"海淀"}
{"_id":{"$oid":"590094ac5e986a05ba0d94d3"},"second hand resource":"29","longtitude":"116.27194213867188","court":"永定路22号院","address":"永定路22号院","house type":"住宅","latitude":"39.92756271362305","href":"https://m.fang.com/xiaoqu/bj/1010614587.html","average price":"51506","second hand trading":"13","build time":"2000","district":"海淀"}
{"_id":{"$oid":"590094b15e986a05ba0d94d4"},"second hand resource":"130","longtitude":"116.32859802246094","court":"阜光里小区","address":"西三环航天桥东阜成路","house type":"住宅","latitude":"39.93301773071289","href":"https://m.fang.com/xiaoqu/bj/1010308719.html","average price":"96582","second hand trading":"116","build time":"1998","district":"海淀"}
{"_id":{"$oid":"590094b25e986a05ba0d94d5"},"second hand resource":"72","longtitude":"116.34502410888672","court":"荣上居","address":"西五道口2号","house type":"住宅","latitude":"39.98524475097656","href":"https://m.fang.com/xiaoqu/bj/1010101240.html","average price":"100646","second hand trading":"93","build time":"2006","district":"海淀"}
{"_id":{"$oid":"590094b35e986a05ba0d94d6"},"second hand resource":"10","longtitude":"116.33475494384766","court":"加气厂宿舍","address":"上地南路往东走500米","house type":"住宅","latitude":"40.037418365478516","href":"https://m.fang.com/xiaoqu/bj/1010612623.html","average price":"50265","second hand trading":"31","build time":"1996","district":"海淀"}
{"_id":{"$oid":"590094b65e986a05ba0d94d7"},"second hand resource":"348","longtitude":"116.30632781982422","court":"车道沟南里","address":"西三环紫竹桥西昆玉河东侧100米","house type":"住宅","latitude":"39.9466552734375","href":"https://m.fang.com/xiaoqu/bj/1010198399.html","average price":"107950","second hand trading":"476","build time":"1995","district":"海淀"}
{"_id":{"$oid":"590094ba5e986a05ba0d94d8"},"second hand resource":"374","longtitude":"116.34184265136719","court":"皂君东里","address":"南皂君庙路与学院南路交叉口东北角(中软大厦东侧)","house type":"住宅","latitude":"39.96546936035156","href":"https://m.fang.com/xiaoqu/bj/1010197287.html","average price":"101970","second hand trading":"494","build time":"1980","district":"海淀"}
{"_id":{"$oid":"590094bd5e986a05ba0d94d9"},"second hand resource":"7","longtitude":"116.35311126708984","court":"交大东路7号院","address":"交大东路7号院","house type":"住宅","latitude":"39.96216583251953","href":"https://m.fang.com/xiaoqu/bj/1010561265.html","average price":"83647","second hand trading":"6","build time":"2000","district":"海淀"}
{"_id":{"$oid":"590094be5e986a05ba0d94da"},"second hand resource":"59","longtitude":"116.3564682006836","court":"清华东路27号院","address":"清华东路与静淑苑路交叉口(农业大学东侧)","house type":"住宅","latitude":"40.00732421875","href":"https://m.fang.com/xiaoqu/bj/1010328737.html","average price":"91209","second hand trading":"127","build time":"1999","district":"海淀"}
{"_id":{"$oid":"590094c05e986a05ba0d94db"},"second hand resource":"183","longtitude":"116.27615356445312","court":"金沟河小区","address":"金沟河路航天二院北门向东200米路北","house type":"住宅","latitude":"39.92436599731445","href":"https://m.fang.com/xiaoqu/bj/1010420343.html","average price":"81281","second hand trading":"404","build time":"1993","district":"海淀"}
{"_id":{"$oid":"590094c15e986a05ba0d94dc"},"second hand resource":"76","longtitude":"116.26297760009766","court":"玉泉路16号院","address":"五棵松地铁北玉泉路16号","house type":"住宅","latitude":"39.920005798339844","href":"https://m.fang.com/xiaoqu/bj/1010374707.html","average price":"77014","second hand trading":"65","build time":"1990","district":"海淀"}
{"_id":{"$oid":"590094c25e986a05ba0d94dd"},"second hand resource":"102","longtitude":"116.30033111572266","court":"西山公馆","address":"东北旺西路8号中关村软件园","house type":"住宅","latitude":"40.05056381225586","href":"https://m.fang.com/xiaoqu/bj/1010653307.html","average price":"91645","second hand trading":"47","build time":"2012","district":"海淀"}
{"_id":{"$oid":"590094ca5e986a05ba0d94de"},"second hand resource":"80","longtitude":"116.33367156982422","court":"乔建里小区","address":"北峰窝西路12号","house type":"住宅","latitude":"39.90791702270508","href":"https://m.fang.com/xiaoqu/bj/1010580313.html","average price":"95861","second hand trading":"110","build time":"1997","district":"海淀"}
{"_id":{"$oid":"590094cc5e986a05ba0d94df"},"second hand resource":"37","longtitude":"116.27071380615234","court":"永定路17号院","address":"西长安街永定路口向北武警总医院","house type":"住宅","latitude":"39.927101135253906","href":"https://m.fang.com/xiaoqu/bj/1010506597.html","average price":"79052","second hand trading":"38","build time":"2000","district":"海淀"}
{"_id":{"$oid":"590094ce5e986a05ba0d94e0"},"second hand resource":"72","longtitude":"116.33258819580078","court":"电信局社区","address":"北蜂窝路62号","house type":"住宅","latitude":"39.904842376708984","href":"https://m.fang.com/xiaoqu/bj/1010215603.html","average price":"77468","second hand trading":"NULL","build time":"1986","district":"海淀"}
{"_id":{"$oid":"590094cf5e986a05ba0d94e1"},"second hand resource":"220","longtitude":"116.28901672363281","court":"美丽经典园","address":"蓝靛厂南路(章化南路)","house type":"住宅","latitude":"39.94370651245117","href":"https://m.fang.com/xiaoqu/bj/1010168903.html","average price":"113658","second hand trading":"65","build time":"2009","district":"海淀"}
{"_id":{"$oid":"590094d45e986a05ba0d94e2"},"second hand resource":"104","longtitude":"116.2532730102539","court":"国家地震局宿舍","address":"玉泉路地铁向北500米,航天医院西500米","house type":"住宅","latitude":"39.92110824584961","href":"https://m.fang.com/xiaoqu/bj/1010656769.html","average price":"46843","second hand trading":"66","build time":"1998","district":"海淀"}
{"_id":{"$oid":"590094d95e986a05ba0d94e3"},"second hand resource":"493","longtitude":"116.2879409790039","court":"西山华府","address":"马连洼北路与竹园中街交汇处南行150米路两侧","house type":"住宅","latitude":"40.0389289855957","href":"https://m.fang.com/xiaoqu/bj/1010257223.html","average price":"105189","second hand trading":"131","build time":"2011","district":"海淀"}
{"_id":{"$oid":"590094da5e986a05ba0d94e4"},"second hand resource":"8","longtitude":"116.32971954345703","court":"天作国际中心","address":"中关村南大街乙12号","house type":"住宅","latitude":"39.96638488769531","href":"https://m.fang.com/xiaoqu/bj/1010121583.html","average price":"108395","second hand trading":"41","build time":"2008","district":"海淀"}
{"_id":{"$oid":"590094dd5e986a05ba0d94e5"},"second hand resource":"222","longtitude":"116.25635528564453","court":"畅茜园碧森里","address":"田村旱河路阜石路交叉口","house type":"住宅","latitude":"39.93981170654297","href":"https://m.fang.com/xiaoqu/bj/1010302669.html","average price":"89245","second hand trading":"84","build time":"2004","district":"海淀"}
{"_id":{"$oid":"590094e15e986a05ba0d94e6"},"second hand resource":"254","longtitude":"116.25733184814453","court":"畅茜园兰德华庭","address":"阜石路35号","house type":"住宅","latitude":"39.93427658081055","href":"https://m.fang.com/xiaoqu/bj/1010038821.html","average price":"84380","second hand trading":"100","build time":"2003","district":"海淀"}
{"_id":{"$oid":"590094e65e986a05ba0d94e7"},"second hand resource":"170","longtitude":"116.34676361083984","court":"东王庄","address":"学院路林业大学南门旁","house type":"住宅","latitude":"40.00474548339844","href":"https://m.fang.com/xiaoqu/bj/1010198619.html","average price":"92326","second hand trading":"348","build time":"1998","district":"海淀"}
{"_id":{"$oid":"590094e95e986a05ba0d94e8"},"second hand resource":"46","longtitude":"116.27116394042969","court":"永定路小区","address":"永定路十字路口西南永定路小区内","house type":"住宅","latitude":"39.91206359863281","href":"https://m.fang.com/xiaoqu/bj/1010315105.html","average price":"82508","second hand trading":"23","build time":"1998","district":"海淀"}
{"_id":{"$oid":"590094ea5e986a05ba0d94e9"},"second hand resource":"322","longtitude":"116.36669921875","court":"今典花园","address":"文慧园北路9号","house type":"住宅","latitude":"39.959293365478516","href":"https://m.fang.com/xiaoqu/bj/1010028777.html","average price":"103551","second hand trading":"434","build time":"2014","district":"海淀"}
{"_id":{"$oid":"590094ec5e986a05ba0d94ea"},"second hand resource":"96","longtitude":"116.31562042236328","court":"昌运宫","address":"西三环紫竹桥西南角(空军航空医学研究所附属医院东侧)","house type":"住宅","latitude":"39.94691467285156","href":"https://m.fang.com/xiaoqu/bj/1010170363.html","average price":"97445","second hand trading":"105","build time":"1992","district":"海淀"}
{"_id":{"$oid":"590094f25e986a05ba0d94eb"},"second hand resource":"94","longtitude":"116.35860443115234","court":"保利海德公园","address":"北三环蓟门桥北500米路西","house type":"住宅","latitude":"39.980281829833984","href":"https://m.fang.com/xiaoqu/bj/1010737375.html","average price":"100320","second hand trading":"16","build time":"2015","district":"海淀"}
{"_id":{"$oid":"590094f75e986a05ba0d94ec"},"second hand resource":"493","longtitude":"116.2879409790039","court":"西山华府禧园","address":"马连洼北路与竹园中街交汇处南行150米路两侧","house type":"住宅","latitude":"40.0389289855957","href":"https://m.fang.com/xiaoqu/bj/1010257223.html","average price":"105189","second hand trading":"131","build time":"2011","district":"海淀"}
{"_id":{"$oid":"590094f95e986a05ba0d94ed"},"second hand resource":"45","longtitude":"116.33317565917969","court":"军博电信宿舍","address":"北蜂窝中路8号院","house type":"住宅","latitude":"39.90455627441406","href":"https://m.fang.com/xiaoqu/bj/1010609803.html","average price":"90152","second hand trading":"102","build time":"2000","district":"海淀"}
{"_id":{"$oid":"590094fa5e986a05ba0d94ee"},"second hand resource":"44","longtitude":"116.25708770751953","court":"玉泉路15号院","address":"玉泉路15号院","house type":"住宅","latitude":"39.922977447509766","href":"https://m.fang.com/xiaoqu/bj/1010731795.html","average price":"82922","second hand trading":"41","build time":"1997","district":"海淀"}
{"_id":{"$oid":"590094fb5e986a05ba0d94ef"},"second hand resource":"493","longtitude":"116.2879409790039","court":"亿城西山华府","address":"马连洼北路与竹园中街交汇处南行150米路两侧","house type":"住宅","latitude":"40.0389289855957","href":"https://m.fang.com/xiaoqu/bj/1010257223.html","average price":"105189","second hand trading":"131","build time":"2011","district":"海淀"}
{"_id":{"$oid":"590094fc5e986a05ba0d94f0"},"second hand resource":"203","longtitude":"116.3548812866211","court":"永泰园","address":"西三旗清河桥东100米","house type":"住宅","latitude":"40.041107177734375","href":"https://m.fang.com/xiaoqu/bj/1010000515.html","average price":"72281","second hand trading":"389","build time":"2002","district":"海淀"}
{"_id":{"$oid":"590094fd5e986a05ba0d94f1"},"second hand resource":"30","longtitude":"116.25399017333984","court":"玉泉路11号院","address":"玉泉路11号院","house type":"住宅","latitude":"39.92241668701172","href":"https://m.fang.com/xiaoqu/bj/1010374705.html","average price":"59152","second hand trading":"8","build time":"1992","district":"海淀"}
{"_id":{"$oid":"590094fe5e986a05ba0d94f2"},"second hand resource":"372","longtitude":"116.3143310546875","court":"海淀南路小区","address":"地铁10号线苏州街站C口往东100米","house type":"住宅","latitude":"39.98102569580078","href":"https://m.fang.com/xiaoqu/bj/1010195395.html","average price":"110453","second hand trading":"284","build time":"1990","district":"海淀"}
{"_id":{"$oid":"590095045e986a05ba0d94f3"},"second hand resource":"221","longtitude":"116.28901672363281","court":"水云居","address":"蓝靛厂南路(章化南路)","house type":"住宅","latitude":"39.94370651245117","href":"https://m.fang.com/xiaoqu/bj/1010168903.html","average price":"113658","second hand trading":"65","build time":"2009","district":"海淀"}
{"_id":{"$oid":"590095055e986a05ba0d94f4"},"second hand resource":"80","longtitude":"116.33367156982422","court":"乔建里","address":"北峰窝西路12号","house type":"住宅","latitude":"39.90791702270508","href":"https://m.fang.com/xiaoqu/bj/1010580313.html","average price":"95861","second hand trading":"110","build time":"1997","district":"海淀"}
{"_id":{"$oid":"590095095e986a05ba0d94f5"},"second hand resource":"292","longtitude":"116.30524444580078","court":"翠微路2号院","address":"翠微路2号院","house type":"住宅","latitude":"39.91633605957031","href":"https://m.fang.com/xiaoqu/bj/1010215557.html","average price":"111587","second hand trading":"316","build time":"1990","district":"海淀"}
{"_id":{"$oid":"5900950d5e986a05ba0d94f6"},"second hand resource":"1198","longtitude":"116.26231384277344","court":"玉海园","address":"玉泉路与金沟河路交叉口东北侧","house type":"住宅","latitude":"39.92582321166992","href":"https://m.fang.com/xiaoqu/bj/1010001070.html","average price":"78569","second hand trading":"831","build time":"2014","district":"海淀"}
{"_id":{"$oid":"5900950e5e986a05ba0d94f7"},"second hand resource":"7","longtitude":"116.28302764892578","court":"五孔桥33号院","address":"田村路北侧五孔桥33号","house type":"住宅","latitude":"39.93537521362305","href":"https://m.fang.com/xiaoqu/bj/1010513263.html","average price":"48988","second hand trading":"NULL","build time":"2000","district":"海淀"}
{"_id":{"$oid":"590095105e986a05ba0d94f8"},"second hand resource":"157","longtitude":"116.33683013916016","court":"知春路82号院","address":"知春路与中关村东路交叉口南行200路西","house type":"住宅","latitude":"39.979888916015625","href":"https://m.fang.com/xiaoqu/bj/1010216421.html","average price":"114928","second hand trading":"51","build time":"2001","district":"海淀"}
{"_id":{"$oid":"590095115e986a05ba0d94f9"},"second hand resource":"32","longtitude":"116.28289031982422","court":"安装宿舍","address":"五孔桥33号院","house type":"住宅","latitude":"39.936283111572266","href":"https://m.fang.com/xiaoqu/bj/1010513387.html","average price":"61914","second hand trading":"54","build time":"2000","district":"海淀"}
{"_id":{"$oid":"590095135e986a05ba0d94fa"},"second hand resource":"8","longtitude":"116.35950469970703","court":"农大家属区","address":"海淀区清华东路17号(农大院内)","house type":"住宅","latitude":"40.01244354248047","href":"https://m.fang.com/xiaoqu/bj/1010580787.html","average price":"90953","second hand trading":"NULL","build time":"2000","district":"海淀"}
{"_id":{"$oid":"590095185e986a05ba0d94fb"},"second hand resource":"18","longtitude":"116.33364868164062","court":"丝绸厂宿舍","address":"安宁庄东路6号院","house type":"住宅","latitude":"40.054500579833984","href":"https://m.fang.com/xiaoqu/bj/1010548543.html","average price":"76261","second hand trading":"38","build time":"2000","district":"海淀"}
{"_id":{"$oid":"5900951d5e986a05ba0d94fc"},"second hand resource":"64","longtitude":"116.34223175048828","court":"清河毛纺厂北小区","address":"清河毛纺路小营桥西北角","house type":"住宅","latitude":"40.044342041015625","href":"https://m.fang.com/xiaoqu/bj/1010580509.html","average price":"82705","second hand trading":"167","build time":"2000","district":"海淀"}
{"_id":{"$oid":"5900951f5e986a05ba0d94fd"},"second hand resource":"97","longtitude":"116.38081359863281","court":"牡丹园东里","address":"花园路北太平庄牡丹园小区东里","house type":"住宅","latitude":"39.98388671875","href":"https://m.fang.com/xiaoqu/bj/1010216335.html","average price":"108512","second hand trading":"351","build time":"2000","district":"海淀"}
{"_id":{"$oid":"590095235e986a05ba0d94fe"},"second hand resource":"67","longtitude":"116.35646057128906","court":"北新家园","address":"建材城西路与黄平路的交叉口以北","house type":"住宅","latitude":"40.066768646240234","href":"https://m.fang.com/xiaoqu/bj/1010170387.html","average price":"59393","second hand trading":"31","build time":"2001","district":"海淀"}
{"_id":{"$oid":"590095255e986a05ba0d94ff"},"second hand resource":"115","longtitude":"116.31363677978516","court":"中湾国际公寓","address":"彩和坊西小街1号中湾国际公寓","house type":"住宅","latitude":"39.98731231689453","href":"https://m.fang.com/xiaoqu/bj/1010521943.html","average price":"97713","second hand trading":"4","build time":"2008","district":"海淀"}
{"_id":{"$oid":"590095275e986a05ba0d9500"},"second hand resource":"231","longtitude":"116.34224700927734","court":"沁春家园","address":"西三旗转盘东路3号","house type":"住宅","latitude":"40.06233596801758","href":"https://m.fang.com/xiaoqu/bj/1010000336.html","average price":"56121","second hand trading":"238","build time":"2004","district":"海淀"}
{"_id":{"$oid":"590095295e986a05ba0d9501"},"second hand resource":"275","longtitude":"116.3449478149414","court":"龙乡小区","address":"建材城西路北侧","house type":"住宅","latitude":"40.06565475463867","href":"https://m.fang.com/xiaoqu/bj/1010216473.html","average price":"50653","second hand trading":"191","build time":"1997","district":"海淀"}
{"_id":{"$oid":"5900952e5e986a05ba0d9502"},"second hand resource":"12","longtitude":"116.33901977539062","court":"毛纺动力厂宿舍","address":"清河小营安宁庄","house type":"住宅","latitude":"40.04642868041992","href":"https://m.fang.com/xiaoqu/bj/1010579129.html","average price":"63163","second hand trading":"36","build time":"2000","district":"海淀"}
{"_id":{"$oid":"5900952f5e986a05ba0d9503"},"second hand resource":"148","longtitude":"116.37387084960938","court":"宝盛里","address":"清河桥向东1公里","house type":"住宅","latitude":"40.040382385253906","href":"https://m.fang.com/xiaoqu/bj/1010000198.html","average price":"62386","second hand trading":"341","build time":"2001","district":"海淀"}
{"_id":{"$oid":"5900953b5e986a05ba0d9504"},"second hand resource":"224","longtitude":"116.29134368896484","court":"恩济里","address":"航天桥西定慧寺路口北200米恩济里小区","house type":"住宅","latitude":"39.937347412109375","href":"https://m.fang.com/xiaoqu/bj/1010215655.html","average price":"92568","second hand trading":"309","build time":"1994","district":"海淀"}
{"_id":{"$oid":"5900953d5e986a05ba0d9505"},"second hand resource":"78","longtitude":"116.37545776367188","court":"宝盛北里","address":"永泰庄北路南侧,东升文体公园西侧","house type":"住宅","latitude":"40.04434585571289","href":"https://m.fang.com/xiaoqu/bj/1010198383.html","average price":"63880","second hand trading":"175","build time":"2004","district":"海淀"}
{"_id":{"$oid":"5900953f5e986a05ba0d9506"},"second hand resource":"101","longtitude":"116.33506774902344","court":"金榜园","address":"西三旗桥北300米","house type":"住宅","latitude":"40.067230224609375","href":"https://m.fang.com/xiaoqu/bj/1010011430.html","average price":"58566","second hand trading":"141","build time":"2001","district":"海淀"}
{"_id":{"$oid":"590095475e986a05ba0d9507"},"second hand resource":"83","longtitude":"116.27845001220703","court":"西木小区","address":"西四环137号院","house type":"住宅","latitude":"39.93903350830078","href":"https://m.fang.com/xiaoqu/bj/1010216431.html","average price":"84884","second hand trading":"132","build time":"1999","district":"海淀"}
{"_id":{"$oid":"5900954c5e986a05ba0d9508"},"second hand resource":"12","longtitude":"116.35672760009766","court":"小营东路6号院","address":"清河小营东路6号院","house type":"住宅","latitude":"40.04541778564453","href":"https://m.fang.com/xiaoqu/bj/1010374231.html","average price":"78079","second hand trading":"67","build time":"1989","district":"海淀"}
{"_id":{"$oid":"590095505e986a05ba0d9509"},"second hand resource":"257","longtitude":"116.32260131835938","court":"铭科苑","address":"西二旗","house type":"住宅","latitude":"40.058650970458984","href":"https://m.fang.com/xiaoqu/bj/1010000966.html","average price":"75069","second hand trading":"400","build time":"1998","district":"海淀"}
{"_id":{"$oid":"590095515e986a05ba0d950a"},"second hand resource":"8","longtitude":"116.36737060546875","court":"今典花园二期","address":"文慧园北路9号","house type":"住宅","latitude":"39.958492279052734","href":"https://m.fang.com/xiaoqu/bj/1010003343.html","average price":"96442","second hand trading":"2","build time":"2001","district":"海淀"}
{"_id":{"$oid":"590095595e986a05ba0d950b"},"second hand resource":"37","longtitude":"116.33728790283203","court":"茂林居社区","address":"长安街北茂林居西路","house type":"住宅","latitude":"39.914302825927734","href":"https://m.fang.com/xiaoqu/bj/1010216557.html","average price":"100138","second hand trading":"61","build time":"1981","district":"海淀"}
{"_id":{"$oid":"5900955a5e986a05ba0d950c"},"second hand resource":"4","longtitude":"116.33216857910156","court":"军博铁道部小区","address":"复兴路10号","house type":"住宅","latitude":"39.911399841308594","href":"https://m.fang.com/xiaoqu/bj/1010578989.html","average price":"84966","second hand trading":"NULL","build time":"2000","district":"海淀"}
{"_id":{"$oid":"590095605e986a05ba0d950d"},"second hand resource":"4","longtitude":"116.28593444824219","court":"农大家属楼","address":"圆明园西路3号院","house type":"住宅","latitude":"40.02970886230469","href":"https://m.fang.com/xiaoqu/bj/1010573863.html","average price":"66090","second hand trading":"NULL","build time":"2000","district":"海淀"}
{"_id":{"$oid":"590095645e986a05ba0d950e"},"second hand resource":"16","longtitude":"116.2730941772461","court":"永定路15号院","address":"永定路武警医院附近","house type":"住宅","latitude":"39.91192626953125","href":"https://m.fang.com/xiaoqu/bj/1010339947.html","average price":"69140","second hand trading":"NULL","build time":"2001","district":"海淀"}
{"_id":{"$oid":"590095655e986a05ba0d950f"},"second hand resource":"113","longtitude":"116.33126831054688","court":"双榆树西里","address":"北三环西路四通桥附近(东北角)","house type":"住宅","latitude":"39.97481155395508","href":"https://m.fang.com/xiaoqu/bj/1010493263.html","average price":"105512","second hand trading":"182","build time":"1985","district":"海淀"}
{"_id":{"$oid":"5900956a5e986a05ba0d9510"},"second hand resource":"6","longtitude":"116.35017395019531","court":"清河小营东路17号院","address":"清河小营公交车站附近","house type":"住宅","latitude":"40.046085357666016","href":"https://m.fang.com/xiaoqu/bj/1010607707.html","average price":"52398","second hand trading":"1","build time":"2000","district":"海淀"}
{"_id":{"$oid":"5900956d5e986a05ba0d9511"},"second hand resource":"234","longtitude":"116.31745147705078","court":"智学苑","address":"西二旗地铁站东侧200米","house type":"住宅","latitude":"40.05685043334961","href":"https://m.fang.com/xiaoqu/bj/1010170367.html","average price":"62894","second hand trading":"377","build time":"1998","district":"海淀"}
{"_id":{"$oid":"590095725e986a05ba0d9512"},"second hand resource":"126","longtitude":"116.29885864257812","court":"绿波漫板","address":"五路居(玲珑塔北1公里)蓝靛厂南路裕泽园","house type":"住宅","latitude":"39.94315719604492","href":"https://m.fang.com/xiaoqu/bj/1010039194.html","average price":"90718","second hand trading":"45","build time":"2004","district":"海淀"}
{"_id":{"$oid":"590095755e986a05ba0d9513"},"second hand resource":"24","longtitude":"116.33282470703125","court":"青云南区","address":"北三环西路双安商场后面","house type":"住宅","latitude":"39.97087478637695","href":"https://m.fang.com/xiaoqu/bj/1010322147.html","average price":"92911","second hand trading":"40","build time":"1988","district":"海淀"}
{"_id":{"$oid":"590095795e986a05ba0d9514"},"second hand resource":"86","longtitude":"116.30427551269531","court":"吴家村10号院","address":"吴家村10号院","house type":"住宅","latitude":"39.8956298828125","href":"https://m.fang.com/xiaoqu/bj/1010356205.html","average price":"82710","second hand trading":"204","build time":"1999","district":"海淀"}
{"_id":{"$oid":"5900957a5e986a05ba0d9515"},"second hand resource":"621","longtitude":"116.33576965332031","court":"双榆树东里","address":"联想桥科学院南路与学院南路口东南角","house type":"住宅","latitude":"39.97342300415039","href":"https://m.fang.com/xiaoqu/bj/1010196927.html","average price":"96439","second hand trading":"508","build time":"1982","district":"海淀"}
{"_id":{"$oid":"5900957f5e986a05ba0d9516"},"second hand resource":"218","longtitude":"116.33206176757812","court":"知春东里","address":"知春路路口以南约70米路东","house type":"住宅","latitude":"39.98087692260742","href":"https://m.fang.com/xiaoqu/bj/1010197289.html","average price":"113879","second hand trading":"224","build time":"1995","district":"海淀"}
{"_id":{"$oid":"590095825e986a05ba0d9517"},"second hand resource":"23","longtitude":"116.26871490478516","court":"田村39号院","address":"田村半壁店39号院","house type":"住宅","latitude":"39.93571090698242","href":"https://m.fang.com/xiaoqu/bj/1010619785.html","average price":"70701","second hand trading":"28","build time":"2000","district":"海淀"}
{"_id":{"$oid":"590095845e986a05ba0d9518"},"second hand resource":"80","longtitude":"116.21624755859375","court":"门头馨村北区","address":"香山南路东侧,闵庄路南侧","house type":"住宅","latitude":"39.975711822509766","href":"https://m.fang.com/xiaoqu/bj/1010579345.html","average price":"59654","second hand trading":"125","build time":"2000","district":"海淀"}
{"_id":{"$oid":"590095895e986a05ba0d9519"},"second hand resource":"120","longtitude":"116.35929107666016","court":"蓟门东里","address":"西土城路与蓟门里北路交叉口(中关村中学分校东侧)","house type":"住宅","latitude":"39.976341247558594","href":"https://m.fang.com/xiaoqu/bj/1010322745.html","average price":"94677","second hand trading":"294","build time":"2000","district":"海淀"}
{"_id":{"$oid":"5900958d5e986a05ba0d951a"},"second hand resource":"20","longtitude":"116.258056640625","court":"玉泉路19号院","address":"玉泉路19号院","house type":"住宅","latitude":"39.9141845703125","href":"https://m.fang.com/xiaoqu/bj/1010513271.html","average price":"70854","second hand trading":"2","build time":"1994","district":"海淀"}
{"_id":{"$oid":"5900958f5e986a05ba0d951b"},"second hand resource":"44","longtitude":"116.2782211303711","court":"常青园北里","address":"西四环南坞桥西南侧","house type":"住宅","latitude":"39.96919250488281","href":"https://m.fang.com/xiaoqu/bj/1010655979.html","average price":"60012","second hand trading":"NULL","build time":"2009","district":"海淀"}
{"_id":{"$oid":"590095935e986a05ba0d951c"},"second hand resource":"263","longtitude":"116.36578369140625","court":"永泰东里","address":"地铁永泰庄站东南角","house type":"住宅","latitude":"40.0408821105957","href":"https://m.fang.com/xiaoqu/bj/1010197243.html","average price":"72743","second hand trading":"497","build time":"1998","district":"海淀"}
{"_id":{"$oid":"590095965e986a05ba0d951d"},"second hand resource":"229","longtitude":"116.35232543945312","court":"育新花园","address":"西三旗桥东新都路南侧","house type":"住宅","latitude":"40.062381744384766","href":"https://m.fang.com/xiaoqu/bj/1010197273.html","average price":"91330","second hand trading":"704","build time":"1996","district":"海淀"}
{"_id":{"$oid":"5900959a5e986a05ba0d951e"},"second hand resource":"45","longtitude":"116.35957336425781","court":"建材城西一里","address":"西三旗建材城西路与黄平路交叉口东行300米路北","house type":"住宅","latitude":"40.069297790527344","href":"https://m.fang.com/xiaoqu/bj/1010528031.html","average price":"62585","second hand trading":"44","build time":"2000","district":"海淀"}
{"_id":{"$oid":"5900959c5e986a05ba0d951f"},"second hand resource":"29","longtitude":"116.37732696533203","court":"润生园","address":"西三旗新都路北侧","house type":"住宅","latitude":"40.07285690307617","href":"https://m.fang.com/xiaoqu/bj/1010493183.html","average price":"50241","second hand trading":"26","build time":"2000","district":"海淀"}
{"_id":{"$oid":"590095a05e986a05ba0d9520"},"second hand resource":"230","longtitude":"116.24857330322266","court":"丹青府","address":"田村路与砂石厂路东南角","house type":"住宅","latitude":"39.934852600097656","href":"https://m.fang.com/xiaoqu/bj/1010185823.html","average price":"82147","second hand trading":"34","build time":"2007","district":"海淀"}
{"_id":{"$oid":"590095a25e986a05ba0d9521"},"second hand resource":"67","longtitude":"116.33062744140625","court":"大泥湾","address":"知春里地铁站往西200米","house type":"住宅","latitude":"39.982643127441406","href":"https://m.fang.com/xiaoqu/bj/1010302633.html","average price":"95557","second hand trading":"101","build time":"1990","district":"海淀"}
{"_id":{"$oid":"590095a95e986a05ba0d9522"},"second hand resource":"380","longtitude":"116.27047729492188","court":"乐府江南","address":"永定路乙1号院","house type":"住宅","latitude":"39.93336486816406","href":"https://m.fang.com/xiaoqu/bj/1010035894.html","average price":"108913","second hand trading":"110","build time":"2005","district":"海淀"}
{"_id":{"$oid":"590095b55e986a05ba0d9523"},"second hand resource":"71","longtitude":"116.37491607666016","court":"志强南园","address":"新街口外饮马槽路北侧(五月华庭西侧)","house type":"住宅","latitude":"39.957393646240234","href":"https://m.fang.com/xiaoqu/bj/1010216271.html","average price":"93658","second hand trading":"157","build time":"2001","district":"海淀"}
{"_id":{"$oid":"590095b85e986a05ba0d9524"},"second hand resource":"313","longtitude":"116.36384582519531","court":"旗胜家园","address":"西三旗环岛向东1.5公里","house type":"住宅","latitude":"40.07408142089844","href":"https://m.fang.com/xiaoqu/bj/1010192305.html","average price":"50650","second hand trading":"318","build time":"2009","district":"海淀"}
{"_id":{"$oid":"590095bf5e986a05ba0d9525"},"second hand resource":"21","longtitude":"116.37007904052734","court":"庚坊国际","address":"北京市海淀区花园路甲13号","house type":"住宅","latitude":"39.97819900512695","href":"https://m.fang.com/xiaoqu/bj/1010607785.html","average price":"80989","second hand trading":"71","build time":"2003","district":"海淀"}
{"_id":{"$oid":"590095c15e986a05ba0d9526"},"second hand resource":"37","longtitude":"116.34429931640625","court":"知春路56号院","address":"知春路城铁旁知春路56号院","house type":"住宅","latitude":"39.980533599853516","href":"https://m.fang.com/xiaoqu/bj/1010341063.html","average price":"73899","second hand trading":"82","build time":"1985","district":"海淀"}
{"_id":{"$oid":"590095c25e986a05ba0d9527"},"second hand resource":"43","longtitude":"116.31976318359375","court":"私摩空间","address":"法华寺27号","house type":"住宅","latitude":"39.9574089050293","href":"https://m.fang.com/xiaoqu/bj/1010066468.html","average price":"83061","second hand trading":"40","build time":"2005","district":"海淀"}
{"_id":{"$oid":"590095c65e986a05ba0d9528"},"second hand resource":"4","longtitude":"116.3581314086914","court":"知春路2号院","address":"知春路2号院","house type":"住宅","latitude":"39.981651306152344","href":"https://m.fang.com/xiaoqu/bj/1010340265.html","average price":"85013","second hand trading":"49","build time":"1999","district":"海淀"}
{"_id":{"$oid":"590095cb5e986a05ba0d9529"},"second hand resource":"111","longtitude":"116.35297393798828","court":"罗庄南里","address":"罗庄南路与地铁13号线交叉口(首都体育学院北侧)","house type":"住宅","latitude":"39.97796630859375","href":"https://m.fang.com/xiaoqu/bj/1010216239.html","average price":"83616","second hand trading":"158","build time":"2001","district":"海淀"}
{"_id":{"$oid":"590095d15e986a05ba0d952a"},"second hand resource":"397","longtitude":"116.25857543945312","court":"玉泉新城","address":"玉泉路以西,海淀区玉泉路与阜石路交汇处西南角","house type":"住宅","latitude":"39.92658615112305","href":"https://m.fang.com/xiaoqu/bj/1010035373.html","average price":"74072","second hand trading":"45","build time":"2012","district":"海淀"}
{"_id":{"$oid":"590095d85e986a05ba0d952b"},"second hand resource":"65","longtitude":"116.3487548828125","court":"海清园","address":"清河三街99号","house type":"住宅","latitude":"40.03889465332031","href":"https://m.fang.com/xiaoqu/bj/1010016533.html","average price":"56486","second hand trading":"65","build time":"2001","district":"海淀"}
{"_id":{"$oid":"590095dd5e986a05ba0d952c"},"second hand resource":"16","longtitude":"116.34989929199219","court":"学院路37号院","address":"海淀区知春路大运村北侧,学院路37号","house type":"住宅","latitude":"39.98572540283203","href":"https://m.fang.com/xiaoqu/bj/1010557427.html","average price":"64083","second hand trading":"36","build time":"1999","district":"海淀"}
{"_id":{"$oid":"590095e85e986a05ba0d952d"},"second hand resource":"171","longtitude":"116.29219055175781","court":"定慧寺东里","address":"北京市海淀区定慧寺东里","house type":"住宅","latitude":"39.92871856689453","href":"https://m.fang.com/xiaoqu/bj/1010198601.html","average price":"93395","second hand trading":"405","build time":"1992","district":"海淀"}
{"_id":{"$oid":"590095ea5e986a05ba0d952e"},"second hand resource":"14","longtitude":"116.33439636230469","court":"北蜂窝15号院","address":"北蜂窝路15号院","house type":"住宅","latitude":"39.9067497253418","href":"https://m.fang.com/xiaoqu/bj/1010217701.html","average price":"97912","second hand trading":"NULL","build time":"2001","district":"海淀"}
{"_id":{"$oid":"590095ec5e986a05ba0d952f"},"second hand resource":"206","longtitude":"116.31175231933594","court":"七贤村","address":"花园桥的西北角,花园桥往西100米","house type":"住宅","latitude":"39.939022064208984","href":"https://m.fang.com/xiaoqu/bj/1010216305.html","average price":"107600","second hand trading":"119","build time":"1995","district":"海淀"}
{"_id":{"$oid":"590095ed5e986a05ba0d9530"},"second hand resource":"65","longtitude":"116.36843872070312","court":"红联南村","address":"小西天文慧园北侧","house type":"住宅","latitude":"39.95556640625","href":"https://m.fang.com/xiaoqu/bj/1010673767.html","average price":"96178","second hand trading":"72","build time":"1996","district":"海淀"}
{"_id":{"$oid":"590095ee5e986a05ba0d9531"},"second hand resource":"97","longtitude":"116.36493682861328","court":"学院南路32号院","address":"明光桥东南角学院南路32号","house type":"住宅","latitude":"39.962650299072266","href":"https://m.fang.com/xiaoqu/bj/1010216275.html","average price":"102618","second hand trading":"103","build time":"1989","district":"海淀"}
{"_id":{"$oid":"590095f05e986a05ba0d9532"},"second hand resource":"67","longtitude":"116.365234375","court":"索家坟小区","address":"文慧园西路,西直门外大街","house type":"住宅","latitude":"39.95745086669922","href":"https://m.fang.com/xiaoqu/bj/1010196945.html","average price":"100506","second hand trading":"232","build time":"2005","district":"海淀"}
{"_id":{"$oid":"590095f15e986a05ba0d9533"},"second hand resource":"137","longtitude":"116.29595947265625","court":"颐慧佳园","address":"蓝靛厂南路西侧,北京市盲人学校东侧","house type":"住宅","latitude":"39.94319534301758","href":"https://m.fang.com/xiaoqu/bj/1010068846.html","average price":"92560","second hand trading":"127","build time":"2005","district":"海淀"}
{"_id":{"$oid":"590095f35e986a05ba0d9534"},"second hand resource":"10","longtitude":"116.284912109375","court":"太平路甲20号院","address":"海淀区太平路甲20号院","house type":"住宅","latitude":"39.905662536621094","href":"https://m.fang.com/xiaoqu/bj/1010122179.html","average price":"60020","second hand trading":"16","build time":"NULL","district":"海淀"}
{"_id":{"$oid":"590095f85e986a05ba0d9535"},"second hand resource":"116","longtitude":"116.30268096923828","court":"翠微中里小区","address":"万寿路与玉渊潭南路交叉口东北侧(天富丽华商务会所东侧)","house type":"住宅","latitude":"39.91984939575195","href":"https://m.fang.com/xiaoqu/bj/1010198427.html","average price":"106248","second hand trading":"330","build time":"1986","district":"海淀"}
{"_id":{"$oid":"590095f95e986a05ba0d9536"},"second hand resource":"99","longtitude":"116.33736419677734","court":"双榆树南里","address":"北三环西路双天大厦西侧巷里200米东","house type":"住宅","latitude":"39.971527099609375","href":"https://m.fang.com/xiaoqu/bj/1010196929.html","average price":"111396","second hand trading":"157","build time":"1996","district":"海淀"}
{"_id":{"$oid":"590095fb5e986a05ba0d9537"},"second hand resource":"55","longtitude":"116.27869415283203","court":"复兴路30号院","address":"五棵松地铁西南口","house type":"住宅","latitude":"39.91336441040039","href":"https://m.fang.com/xiaoqu/bj/1010569063.html","average price":"92429","second hand trading":"94","build time":"2000","district":"海淀"}
{"_id":{"$oid":"590095fd5e986a05ba0d9538"},"second hand resource":"1007","longtitude":"116.34284973144531","court":"华清嘉园","address":"五道口西侧清华东门对面","house type":"住宅","latitude":"39.996891021728516","href":"https://m.fang.com/xiaoqu/bj/1010000927.html","average price":"125934","second hand trading":"319","build time":"2002","district":"海淀"}
{"_id":{"$oid":"590095fe5e986a05ba0d9539"},"second hand resource":"12","longtitude":"116.34236907958984","court":"三里河路42号楼","address":"三里河路42号楼","house type":"住宅","latitude":"39.92987823486328","href":"https://m.fang.com/xiaoqu/bj/1010122357.html","average price":"96592","second hand trading":"NULL","build time":"NULL","district":"海淀"}
{"_id":{"$oid":"590096005e986a05ba0d953a"},"second hand resource":"175","longtitude":"116.33342742919922","court":"景王坟小区","address":"增光路与首体南路交界处往北150米","house type":"住宅","latitude":"39.93522644042969","href":"https://m.fang.com/xiaoqu/bj/1010405627.html","average price":"128783","second hand trading":"166","build time":"1998","district":"海淀"}
{"_id":{"$oid":"590096025e986a05ba0d953b"},"second hand resource":"257","longtitude":"116.3675308227539","court":"塔院","address":"牡丹园花园路3号","house type":"住宅","latitude":"39.982601165771484","href":"https://m.fang.com/xiaoqu/bj/1010196947.html","average price":"101589","second hand trading":"440","build time":"1991","district":"海淀"}
{"_id":{"$oid":"590096035e986a05ba0d953c"},"second hand resource":"377","longtitude":"116.3276596069336","court":"当代城市家园","address":"安宁庄西路9号院","house type":"住宅","latitude":"40.05047607421875","href":"https://m.fang.com/xiaoqu/bj/1010068547.html","average price":"92510","second hand trading":"337","build time":"2004","district":"海淀"}
{"_id":{"$oid":"590096065e986a05ba0d953d"},"second hand resource":"11","longtitude":"116.31425476074219","court":"海淀大街25号","address":"海淀大街25号","house type":"住宅","latitude":"39.98867416381836","href":"https://m.fang.com/xiaoqu/bj/1010548427.html","average price":"119251","second hand trading":"7","build time":"2000","district":"海淀"}
{"_id":{"$oid":"590096075e986a05ba0d953e"},"second hand resource":"279","longtitude":"116.31205749511719","court":"小南庄","address":"海淀海淀街道苏州桥西社区","house type":"住宅","latitude":"39.972618103027344","href":"https://m.fang.com/xiaoqu/bj/1010302647.html","average price":"109811","second hand trading":"679","build time":"1995","district":"海淀"}
{"_id":{"$oid":"5900960e5e986a05ba0d953f"},"second hand resource":"106","longtitude":"116.38079833984375","court":"月季园小区","address":"马甸路甲7号","house type":"住宅","latitude":"39.98070526123047","href":"https://m.fang.com/xiaoqu/bj/1010284503.html","average price":"96415","second hand trading":"473","build time":"1997","district":"海淀"}
{"_id":{"$oid":"5900960f5e986a05ba0d9540"},"second hand resource":"80","longtitude":"116.29521942138672","court":"定慧寺小区","address":"海淀区西四环定慧寺桥北","house type":"住宅","latitude":"39.92735290527344","href":"https://m.fang.com/xiaoqu/bj/1010228623.html","average price":"93727","second hand trading":"NULL","build time":"2000","district":"海淀"}
{"_id":{"$oid":"590096105e986a05ba0d9541"},"second hand resource":"372","longtitude":"116.3143310546875","court":"海淀南路","address":"地铁10号线苏州街站C口往东100米","house type":"住宅","latitude":"39.98102569580078","href":"https://m.fang.com/xiaoqu/bj/1010195395.html","average price":"110453","second hand trading":"284","build time":"1990","district":"海淀"}
{"_id":{"$oid":"590096125e986a05ba0d9542"},"second hand resource":"241","longtitude":"116.33708953857422","court":"中国气象局小区","address":"中关村南大街白石桥民族大学旁,中关村南大街46号院","house type":"住宅","latitude":"39.9540901184082","href":"https://m.fang.com/xiaoqu/bj/1010375227.html","average price":"123826","second hand trading":"80","build time":"1985","district":"海淀"}
{"_id":{"$oid":"590096135e986a05ba0d9543"},"second hand resource":"320","longtitude":"116.2989273071289","court":"西八里庄北里","address":"西八里庄路慈寿寺桥西南角","house type":"住宅","latitude":"39.93394470214844","href":"https://m.fang.com/xiaoqu/bj/1010197151.html","average price":"102414","second hand trading":"11","build time":"1996","district":"海淀"}
{"_id":{"$oid":"590096195e986a05ba0d9544"},"second hand resource":"18","longtitude":"116.3643569946289","court":"邮科社区","address":"海淀区学院路48号院","house type":"住宅","latitude":"39.987152099609375","href":"https://m.fang.com/xiaoqu/bj/1010513355.html","average price":"94058","second hand trading":"110","build time":"2000","district":"海淀"}
{"_id":{"$oid":"5900961b5e986a05ba0d9545"},"second hand resource":"24","longtitude":"116.33438873291016","court":"北蜂窝路15号","address":"北蜂窝路与会城门路交口南160米路西","house type":"住宅","latitude":"39.90675735473633","href":"https://m.fang.com/xiaoqu/bj/1010657505.html","average price":"97494","second hand trading":"29","build time":"1998","district":"海淀"}
{"_id":{"$oid":"590096215e986a05ba0d9546"},"second hand resource":"56","longtitude":"116.3331298828125","court":"阜南小区","address":"甘家口阜南社区,海军总医院附近","house type":"住宅","latitude":"39.927894592285156","href":"https://m.fang.com/xiaoqu/bj/1010215683.html","average price":"119610","second hand trading":"127","build time":"1996","district":"海淀"}
{"_id":{"$oid":"590096225e986a05ba0d9547"},"second hand resource":"136","longtitude":"116.31768798828125","court":"三义庙北里","address":"北三环西路辅路与苏州桥交汇处东行200米(北京理工大学北区东侧)","house type":"住宅","latitude":"39.97136688232422","href":"https://m.fang.com/xiaoqu/bj/1010308727.html","average price":"102104","second hand trading":"275","build time":"1997","district":"海淀"}
{"_id":{"$oid":"590096245e986a05ba0d9548"},"second hand resource":"233","longtitude":"116.27789306640625","court":"六建","address":"复兴路32号","house type":"住宅","latitude":"39.913299560546875","href":"https://m.fang.com/xiaoqu/bj/1010341395.html","average price":"106223","second hand trading":"269","build time":"1990","district":"海淀"}
{"_id":{"$oid":"590096285e986a05ba0d9549"},"second hand resource":"171","longtitude":"116.29219055175781","court":"定慧东里","address":"北京市海淀区定慧寺东里","house type":"住宅","latitude":"39.92871856689453","href":"https://m.fang.com/xiaoqu/bj/1010198601.html","average price":"93395","second hand trading":"405","build time":"1992","district":"海淀"}
{"_id":{"$oid":"590096295e986a05ba0d954a"},"second hand resource":"125","longtitude":"116.2959213256836","court":"八宝庄","address":"八宝庄桥西300米路南","house type":"住宅","latitude":"39.92690658569336","href":"https://m.fang.com/xiaoqu/bj/1010217667.html","average price":"67728","second hand trading":"224","build time":"1992","district":"海淀"}
{"_id":{"$oid":"5900962a5e986a05ba0d954b"},"second hand resource":"33","longtitude":"116.3285903930664","court":"车公庄西路20号院","address":"车公庄西路20号,水科院内","house type":"住宅","latitude":"39.93743896484375","href":"https://m.fang.com/xiaoqu/bj/1010600347.html","average price":"93281","second hand trading":"11","build time":"2000","district":"海淀"}
{"_id":{"$oid":"5900962c5e986a05ba0d954c"},"second hand resource":"44","longtitude":"116.35717010498047","court":"明光北里","address":"北三环西路2号,蓟门桥西南角侧","house type":"住宅","latitude":"39.97303009033203","href":"https://m.fang.com/xiaoqu/bj/1010216523.html","average price":"84731","second hand trading":"122","build time":"1999","district":"海淀"}
{"_id":{"$oid":"5900962d5e986a05ba0d954d"},"second hand resource":"10","longtitude":"116.29261779785156","court":"农大西校区农科院","address":"农大路与圆明园西路交叉口东行50米","house type":"住宅","latitude":"40.02858352661133","href":"https://m.fang.com/xiaoqu/bj/1010656427.html","average price":"70199","second hand trading":"NULL","build time":"1996","district":"海淀"}
{"_id":{"$oid":"590096315e986a05ba0d954e"},"second hand resource":"87","longtitude":"116.3036117553711","court":"翠微南里","address":"海淀区公主坟万寿路翠微南里小区","house type":"住宅","latitude":"39.91841125488281","href":"https://m.fang.com/xiaoqu/bj/1010198425.html","average price":"102921","second hand trading":"322","build time":"1987","district":"海淀"}
{"_id":{"$oid":"590096325e986a05ba0d954f"},"second hand resource":"233","longtitude":"116.27789306640625","court":"六建大院","address":"复兴路32号","house type":"住宅","latitude":"39.913299560546875","href":"https://m.fang.com/xiaoqu/bj/1010341395.html","average price":"106223","second hand trading":"269","build time":"1990","district":"海淀"}
{"_id":{"$oid":"590096375e986a05ba0d9550"},"second hand resource":"23","longtitude":"116.34600830078125","court":"皂君庙7号院","address":"海淀区皂君庙路7号院","house type":"住宅","latitude":"39.96913146972656","href":"https://m.fang.com/xiaoqu/bj/1010560949.html","average price":"78659","second hand trading":"6","build time":"2000","district":"海淀"}
{"_id":{"$oid":"590096385e986a05ba0d9551"},"second hand resource":"768","longtitude":"116.35089874267578","court":"莱圳家园","address":"西小口路与前屯路交汇处西行140米路南","house type":"住宅","latitude":"40.0499382019043","href":"https://m.fang.com/xiaoqu/bj/1010077960.html","average price":"90819","second hand trading":"294","build time":"2010","district":"海淀"}
{"_id":{"$oid":"5900963b5e986a05ba0d9552"},"second hand resource":"63","longtitude":"116.31126403808594","court":"厂洼小区","address":"海淀皇苑西街10号","house type":"住宅","latitude":"39.96489334106445","href":"https://m.fang.com/xiaoqu/bj/1010015259.html","average price":"113385","second hand trading":"600","build time":"2005","district":"海淀"}
{"_id":{"$oid":"5900963b5e986a05ba0d9553"},"second hand resource":"28","longtitude":"116.33350372314453","court":"北三环青年公寓","address":"北三环西路34号","house type":"住宅","latitude":"39.97248840332031","href":"https://m.fang.com/xiaoqu/bj/1010345743.html","average price":"89670","second hand trading":"8","build time":"2001","district":"海淀"}
{"_id":{"$oid":"5900963c5e986a05ba0d9554"},"second hand resource":"32","longtitude":"116.28998565673828","court":"万寿路1号院","address":"西翠路东万寿路1号","house type":"住宅","latitude":"39.92460632324219","href":"https://m.fang.com/xiaoqu/bj/1010403829.html","average price":"87212","second hand trading":"181","build time":"1985","district":"海淀"}
{"_id":{"$oid":"590096415e986a05ba0d9555"},"second hand resource":"67","longtitude":"116.37674713134766","court":"牡丹园西里","address":"花园东路与北土城西路交汇处北行200米路东","house type":"住宅","latitude":"39.985023498535156","href":"https://m.fang.com/xiaoqu/bj/1010216337.html","average price":"106111","second hand trading":"186","build time":"1992","district":"海淀"}
{"_id":{"$oid":"590096435e986a05ba0d9556"},"second hand resource":"23","longtitude":"116.34529113769531","court":"皂君庙丙4号院","address":"皂君庙丙4号院","house type":"住宅","latitude":"39.96910095214844","href":"https://m.fang.com/xiaoqu/bj/1010611063.html","average price":"109700","second hand trading":"42","build time":"2000","district":"海淀"}
{"_id":{"$oid":"590096455e986a05ba0d9557"},"second hand resource":"231","longtitude":"116.37255096435547","court":"二里庄小区","address":"志新西路10号","house type":"住宅","latitude":"40.002197265625","href":"https://m.fang.com/xiaoqu/bj/1010000490.html","average price":"117785","second hand trading":"537","build time":"1995","district":"海淀"}
{"_id":{"$oid":"590096475e986a05ba0d9558"},"second hand resource":"15","longtitude":"116.36935424804688","court":"消夏东里","address":"海淀区西土城路元大都遗址公园对面","house type":"住宅","latitude":"39.98402786254883","href":"https://m.fang.com/xiaoqu/bj/1010556945.html","average price":"82817","second hand trading":"NULL","build time":"1998","district":"海淀"}
{"_id":{"$oid":"590096495e986a05ba0d9559"},"second hand resource":"330","longtitude":"116.35005950927734","court":"铁科院小区","address":"海淀区交大东路交学院南路西南角(中央财经大学南侧)","house type":"住宅","latitude":"39.96241760253906","href":"https://m.fang.com/xiaoqu/bj/1010390463.html","average price":"114232","second hand trading":"80","build time":"1990","district":"海淀"}
{"_id":{"$oid":"5900964a5e986a05ba0d955a"},"second hand resource":"116","longtitude":"116.35111999511719","court":"交大东路31号院","address":"交大东路31号院","house type":"住宅","latitude":"39.954158782958984","href":"https://m.fang.com/xiaoqu/bj/1010395503.html","average price":"109128","second hand trading":"96","build time":"1990","district":"海淀"}
{"_id":{"$oid":"5900964f5e986a05ba0d955b"},"second hand resource":"74","longtitude":"116.34172821044922","court":"大柳树3号院","address":"海淀区大柳树3号院","house type":"住宅","latitude":"39.9619140625","href":"https://m.fang.com/xiaoqu/bj/1010560825.html","average price":"100359","second hand trading":"8","build time":"1989","district":"海淀"}
{"_id":{"$oid":"590096515e986a05ba0d955c"},"second hand resource":"124","longtitude":"116.33000183105469","court":"金隅美和园","address":"小营西路与安宁庄西路交叉口南行190米路两侧","house type":"住宅","latitude":"40.03947830200195","href":"https://m.fang.com/xiaoqu/bj/1010223051.html","average price":"66860","second hand trading":"84","build time":"2007","district":"海淀"}
{"_id":{"$oid":"590096565e986a05ba0d955d"},"second hand resource":"14","longtitude":"116.31304168701172","court":"中塔园小区","address":"航天桥西南角","house type":"住宅","latitude":"39.927555084228516","href":"https://m.fang.com/xiaoqu/bj/1010216313.html","average price":"90487","second hand trading":"33","build time":"1994","district":"海淀"}
{"_id":{"$oid":"5900965a5e986a05ba0d955e"},"second hand resource":"768","longtitude":"116.35089874267578","court":"莱镇香格里","address":"西小口路与前屯路交汇处西行140米路南","house type":"住宅","latitude":"40.0499382019043","href":"https://m.fang.com/xiaoqu/bj/1010077960.html","average price":"90819","second hand trading":"294","build time":"2010","district":"海淀"}
{"_id":{"$oid":"5900965e5e986a05ba0d955f"},"second hand resource":"24","longtitude":"116.31007385253906","court":"翠微路平台村","address":"玉渊潭南路与翠微路交叉口","house type":"住宅","latitude":"39.91995620727539","href":"https://m.fang.com/xiaoqu/bj/1010302625.html","average price":"66518","second hand trading":"40","build time":"1995","district":"海淀"}
{"_id":{"$oid":"5900965f5e986a05ba0d9560"},"second hand resource":"17","longtitude":"116.3115463256836","court":"化工大学家属楼","address":"紫竹院路98号","house type":"住宅","latitude":"39.94816589355469","href":"https://m.fang.com/xiaoqu/bj/1010594823.html","average price":"97083","second hand trading":"48","build time":"2000","district":"海淀"}
{"_id":{"$oid":"590096645e986a05ba0d9561"},"second hand resource":"113","longtitude":"116.33618927001953","court":"铁东小区","address":"北蜂窝路22号院","house type":"住宅","latitude":"39.907291412353516","href":"https://m.fang.com/xiaoqu/bj/1010350545.html","average price":"96117","second hand trading":"194","build time":"1993","district":"海淀"}
{"_id":{"$oid":"5900966a5e986a05ba0d9562"},"second hand resource":"161","longtitude":"116.35975646972656","court":"明光村","address":"学院南路明光桥向西50米","house type":"住宅","latitude":"39.962379455566406","href":"https://m.fang.com/xiaoqu/bj/1010196825.html","average price":"95544","second hand trading":"270","build time":"1983","district":"海淀"}
{"_id":{"$oid":"5900966c5e986a05ba0d9563"},"second hand resource":"21","longtitude":"116.36399841308594","court":"枫蓝国际","address":"西直门北大街32号院","house type":"住宅","latitude":"39.95948791503906","href":"https://m.fang.com/xiaoqu/bj/1010068828.html","average price":"72358","second hand trading":"72","build time":"2001","district":"海淀"}
{"_id":{"$oid":"590096765e986a05ba0d9564"},"second hand resource":"32","longtitude":"116.28998565673828","court":"西翠路铁路小区","address":"西翠路东万寿路1号","house type":"住宅","latitude":"39.92460632324219","href":"https://m.fang.com/xiaoqu/bj/1010403829.html","average price":"87212","second hand trading":"181","build time":"1985","district":"海淀"}
{"_id":{"$oid":"5900967d5e986a05ba0d9565"},"second hand resource":"3","longtitude":"116.33861541748047","court":"增光路16号院","address":"增光路16号院,甘家口西20米路南","house type":"住宅","latitude":"39.933597564697266","href":"https://m.fang.com/xiaoqu/bj/1010656027.html","average price":"72255","second hand trading":"9","build time":"2000","district":"海淀"}
{"_id":{"$oid":"590096815e986a05ba0d9566"},"second hand resource":"45","longtitude":"116.3565444946289","court":"中铁置业翰庭","address":"清华东路与静淑苑路交叉口东北侧(北京林业大学东一门对过)","house type":"住宅","latitude":"40.0088996887207","href":"https://m.fang.com/xiaoqu/bj/1010379023.html","average price":"101743","second hand trading":"83","build time":"2010","district":"海淀"}
{"_id":{"$oid":"590096835e986a05ba0d9567"},"second hand resource":"98","longtitude":"116.272705078125","court":"复兴路36号院","address":"复兴路36号院","house type":"住宅","latitude":"39.913204193115234","href":"https://m.fang.com/xiaoqu/bj/1010350663.html","average price":"103006","second hand trading":"NULL","build time":"1990","district":"海淀"}
{"_id":{"$oid":"590096865e986a05ba0d9568"},"second hand resource":"85","longtitude":"116.3274154663086","court":"新华社社区","address":"羊坊店3号院","house type":"住宅","latitude":"39.910987854003906","href":"https://m.fang.com/xiaoqu/bj/1010216579.html","average price":"103058","second hand trading":"91","build time":"1992","district":"海淀"}
{"_id":{"$oid":"5900968a5e986a05ba0d9569"},"second hand resource":"42","longtitude":"116.33220672607422","court":"中关村南大街40号院","address":"中关村南大街40号院","house type":"住宅","latitude":"39.952640533447266","href":"https://m.fang.com/xiaoqu/bj/1010479105.html","average price":"87790","second hand trading":"73","build time":"2000","district":"海淀"}
{"_id":{"$oid":"590096905e986a05ba0d956a"},"second hand resource":"84","longtitude":"116.3355712890625","court":"双榆树北路","address":"中关村大街与双榆树北路交叉口东南角","house type":"住宅","latitude":"39.9786491394043","href":"https://m.fang.com/xiaoqu/bj/1010499025.html","average price":"92271","second hand trading":"138","build time":"1994","district":"海淀"}
{"_id":{"$oid":"590096925e986a05ba0d956b"},"second hand resource":"152","longtitude":"116.29362487792969","court":"农林科学院","address":"曙光花园中路11号","house type":"住宅","latitude":"39.9501838684082","href":"https://m.fang.com/xiaoqu/bj/1010554823.html","average price":"102694","second hand trading":"53","build time":"2000","district":"海淀"}
{"_id":{"$oid":"590096935e986a05ba0d956c"},"second hand resource":"1202","longtitude":"116.26231384277344","court":"玉海园之园中园","address":"玉泉路与金沟河路交叉口东北侧","house type":"住宅","latitude":"39.92582321166992","href":"https://m.fang.com/xiaoqu/bj/1010001070.html","average price":"78569","second hand trading":"831","build time":"2014","district":"海淀"}
{"_id":{"$oid":"590096975e986a05ba0d956d"},"second hand resource":"277","longtitude":"116.34180450439453","court":"龙湖・唐宁ONE","address":"中关村甲3号","house type":"住宅","latitude":"39.99434280395508","href":"https://m.fang.com/xiaoqu/bj/1010295867.html","average price":"90349","second hand trading":"85","build time":"2011","district":"海淀"}
{"_id":{"$oid":"5900969b5e986a05ba0d956e"},"second hand resource":"100","longtitude":"116.32611846923828","court":"花园村","address":"车公庄西路与紫竹院南路西南角(地铁6号线花园桥站东南侧)","house type":"住宅","latitude":"39.93744659423828","href":"https://m.fang.com/xiaoqu/bj/1010315667.html","average price":"107119","second hand trading":"81","build time":"1980","district":"海淀"}
{"_id":{"$oid":"590096a05e986a05ba0d956f"},"second hand resource":"77","longtitude":"116.30748748779297","court":"翠微东里","address":"翠微路与玉渊潭南路交叉口西北角(北京市育英中学东侧)","house type":"住宅","latitude":"39.92085266113281","href":"https://m.fang.com/xiaoqu/bj/1010222305.html","average price":"114364","second hand trading":"179","build time":"1992","district":"海淀"}
{"_id":{"$oid":"590096a65e986a05ba0d9570"},"second hand resource":"25","longtitude":"116.35137176513672","court":"高梁桥斜街乙40号院","address":"高梁桥斜街乙40号院","house type":"住宅","latitude":"39.952919006347656","href":"https://m.fang.com/xiaoqu/bj/1010734211.html","average price":"81786","second hand trading":"88","build time":"1995","district":"海淀"}
{"_id":{"$oid":"590096a75e986a05ba0d9571"},"second hand resource":"78","longtitude":"116.3210678100586","court":"中央民族大学家属院","address":"北京市海淀区中关村南大街27号","house type":"住宅","latitude":"39.95827865600586","href":"https://m.fang.com/xiaoqu/bj/1010578463.html","average price":"105650","second hand trading":"130","build time":"2000","district":"海淀"}
{"_id":{"$oid":"590096b05e986a05ba0d9572"},"second hand resource":"42","longtitude":"116.34103393554688","court":"大柳树13号院","address":"大柳树13号院","house type":"住宅","latitude":"39.96087646484375","href":"https://m.fang.com/xiaoqu/bj/1010557355.html","average price":"82167","second hand trading":"26","build time":"2000","district":"海淀"}
{"_id":{"$oid":"590096b25e986a05ba0d9573"},"second hand resource":"4","longtitude":"116.34024810791016","court":"大柳树小区","address":"海淀区大柳树甲17号院","house type":"住宅","latitude":"39.9595832824707","href":"https://m.fang.com/xiaoqu/bj/1010560943.html","average price":"64573","second hand trading":"14","build time":"1990","district":"海淀"}
{"_id":{"$oid":"590096b65e986a05ba0d9574"},"second hand resource":"22","longtitude":"116.33139038085938","court":"铁西宿舍","address":"复兴门外北蜂窝路15号","house type":"住宅","latitude":"39.904457092285156","href":"https://m.fang.com/xiaoqu/bj/1010326463.html","average price":"90425","second hand trading":"55","build time":"1993","district":"海淀"}
{"_id":{"$oid":"590096ba5e986a05ba0d9575"},"second hand resource":"10","longtitude":"116.30235290527344","court":"万寿路26号院","address":"海淀区万寿路地铁口东北角处","house type":"住宅","latitude":"39.91425704956055","href":"https://m.fang.com/xiaoqu/bj/1010517265.html","average price":"75451","second hand trading":"33","build time":"1995","district":"海淀"}
{"_id":{"$oid":"590096be5e986a05ba0d9576"},"second hand resource":"39","longtitude":"116.33485412597656","court":"北蜂窝中路甲8号院","address":"北蜂窝甲8号","house type":"住宅","latitude":"39.905643463134766","href":"https://m.fang.com/xiaoqu/bj/1010538303.html","average price":"105864","second hand trading":"42","build time":"2000","district":"海淀"}
{"_id":{"$oid":"590096bf5e986a05ba0d9577"},"second hand resource":"257","longtitude":"116.3675308227539","court":"塔院朗秋园","address":"牡丹园花园路3号","house type":"住宅","latitude":"39.982601165771484","href":"https://m.fang.com/xiaoqu/bj/1010196947.html","average price":"101589","second hand trading":"440","build time":"1991","district":"海淀"}
{"_id":{"$oid":"590096c05e986a05ba0d9578"},"second hand resource":"14","longtitude":"116.3663330078125","court":"北京科技大学家属楼","address":"海淀区学院路30号院","house type":"住宅","latitude":"39.9978141784668","href":"https://m.fang.com/xiaoqu/bj/1010415223.html","average price":"100762","second hand trading":"136","build time":"2001","district":"海淀"}
{"_id":{"$oid":"590096c75e986a05ba0d9579"},"second hand resource":"86","longtitude":"116.30427551269531","court":"莲宝路10号院","address":"吴家村10号院","house type":"住宅","latitude":"39.8956298828125","href":"https://m.fang.com/xiaoqu/bj/1010356205.html","average price":"82710","second hand trading":"204","build time":"1999","district":"海淀"}
{"_id":{"$oid":"590096c85e986a05ba0d957a"},"second hand resource":"204","longtitude":"116.31591796875","court":"普惠南里","address":"北京市海淀区玉渊潭南路普惠南里","house type":"住宅","latitude":"39.91847229003906","href":"https://m.fang.com/xiaoqu/bj/1010216559.html","average price":"109076","second hand trading":"349","build time":"1995","district":"海淀"}
{"_id":{"$oid":"590096cd5e986a05ba0d957b"},"second hand resource":"6","longtitude":"116.35519409179688","court":"交大畅园","address":"西直门交大东路交通大学院内","house type":"住宅","latitude":"39.95231246948242","href":"https://m.fang.com/xiaoqu/bj/1010591583.html","average price":"60109","second hand trading":"1","build time":"2000","district":"海淀"}
{"_id":{"$oid":"590096d35e986a05ba0d957c"},"second hand resource":"54","longtitude":"116.32482147216797","court":"三虎桥小区","address":"紫竹院路甲32号","house type":"住宅","latitude":"39.94477844238281","href":"https://m.fang.com/xiaoqu/bj/1010216653.html","average price":"108995","second hand trading":"25","build time":"2001","district":"海淀"}
{"_id":{"$oid":"590096d75e986a05ba0d957d"},"second hand resource":"149","longtitude":"116.30606079101562","court":"翠微北里小区","address":"翠微路与万寿路交叉口东南200米","house type":"住宅","latitude":"39.922542572021484","href":"https://m.fang.com/xiaoqu/bj/1010222309.html","average price":"118008","second hand trading":"225","build time":"1999","district":"海淀"}
{"_id":{"$oid":"590096d95e986a05ba0d957e"},"second hand resource":"87","longtitude":"116.32136535644531","court":"友谊社区","address":"北三环西路47号","house type":"住宅","latitude":"39.97236633300781","href":"https://m.fang.com/xiaoqu/bj/1010555943.html","average price":"100205","second hand trading":"99","build time":"1979","district":"海淀"}
{"_id":{"$oid":"590096df5e986a05ba0d957f"},"second hand resource":"27","longtitude":"116.33940124511719","court":"中关村东路","address":"北京市海淀区中关村东路","house type":"住宅","latitude":"39.97836685180664","href":"https://m.fang.com/xiaoqu/bj/1010510143.html","average price":"82841","second hand trading":"19","build time":"2000","district":"海淀"}
{"_id":{"$oid":"590096e35e986a05ba0d9580"},"second hand resource":"11","longtitude":"116.36457061767578","court":"文慧园56号公寓","address":"文慧园路56号","house type":"住宅","latitude":"39.95756530761719","href":"https://m.fang.com/xiaoqu/bj/1010110002.html","average price":"83871","second hand trading":"72","build time":"2005","district":"海淀"}
{"_id":{"$oid":"590096e45e986a05ba0d9581"},"second hand resource":"14","longtitude":"116.3079605102539","court":"财智公馆","address":"紫竹桥长智路5号","house type":"住宅","latitude":"39.94879913330078","href":"https://m.fang.com/xiaoqu/bj/1010041933.html","average price":"87973","second hand trading":"115","build time":"2003","district":"海淀"}
{"_id":{"$oid":"590096ee5e986a05ba0d9582"},"second hand resource":"12","longtitude":"116.3584976196289","court":"永泰庄甲6号院","address":"永泰庄甲6号院","house type":"住宅","latitude":"40.038822174072266","href":"https://m.fang.com/xiaoqu/bj/1010605303.html","average price":"54465","second hand trading":"22","build time":"2000","district":"海淀"}
{"_id":{"$oid":"590096f15e986a05ba0d9583"},"second hand resource":"15","longtitude":"116.32457733154297","court":"有色西区","address":"羊坊店17号院","house type":"住宅","latitude":"39.9067268371582","href":"https://m.fang.com/xiaoqu/bj/1010625865.html","average price":"67304","second hand trading":"16","build time":"2000","district":"海淀"}
{"_id":{"$oid":"590096f55e986a05ba0d9584"},"second hand resource":"47","longtitude":"116.3111343383789","court":"苏州街77号院","address":"人大西门万泉庄苏州街77号院","house type":"住宅","latitude":"39.978511810302734","href":"https://m.fang.com/xiaoqu/bj/1010522023.html","average price":"96752","second hand trading":"45","build time":"2000","district":"海淀"}
{"_id":{"$oid":"590096fc5e986a05ba0d9585"},"second hand resource":"38","longtitude":"116.30603790283203","court":"复兴路甲49号院","address":"翠微路口复兴路甲49号院","house type":"住宅","latitude":"39.91447830200195","href":"https://m.fang.com/xiaoqu/bj/1010483755.html","average price":"104873","second hand trading":"19","build time":"1995","district":"海淀"}
{"_id":{"$oid":"590097005e986a05ba0d9586"},"second hand resource":"2","longtitude":"116.3697738647461","court":"庚坊国际好来屋","address":"花园路甲13号","house type":"住宅","latitude":"39.97758483886719","href":"https://m.fang.com/xiaoqu/bj/1010068726.html","average price":"75712","second hand trading":"NULL","build time":"2004","district":"海淀"}
{"_id":{"$oid":"590097035e986a05ba0d9587"},"second hand resource":"1","longtitude":"116.34194946289062","court":"教委计生委大院","address":"中关村东路东侧中关村南四街","house type":"住宅","latitude":"39.9854621887207","href":"https://m.fang.com/xiaoqu/bj/1010639307.html","average price":"112268","second hand trading":"97","build time":"2000","district":"海淀"}
{"_id":{"$oid":"590097085e986a05ba0d9588"},"second hand resource":"208","longtitude":"116.33699035644531","court":"清上园","address":"清河小营环岛往西800米","house type":"住宅","latitude":"40.044490814208984","href":"https://m.fang.com/xiaoqu/bj/1010025814.html","average price":"70422","second hand trading":"420","build time":"2003","district":"海淀"}
{"_id":{"$oid":"5900970d5e986a05ba0d9589"},"second hand resource":"310","longtitude":"116.33851623535156","court":"建设部大院","address":"三里河9号院","house type":"住宅","latitude":"39.93717956542969","href":"https://m.fang.com/xiaoqu/bj/1010328723.html","average price":"139911","second hand trading":"241","build time":"1996","district":"海淀"}
{"_id":{"$oid":"590097145e986a05ba0d958a"},"second hand resource":"256","longtitude":"116.37564086914062","court":"志新村","address":"志新东路与北四环中路辅路交叉口(华北所科技大厦对面)","house type":"住宅","latitude":"39.99566650390625","href":"https://m.fang.com/xiaoqu/bj/1010197293.html","average price":"99793","second hand trading":"328","build time":"1990","district":"海淀"}
{"_id":{"$oid":"590097195e986a05ba0d958b"},"second hand resource":"67","longtitude":"116.37674713134766","court":"牡丹园西里社区","address":"花园东路与北土城西路交汇处北行200米路东","house type":"住宅","latitude":"39.985023498535156","href":"https://m.fang.com/xiaoqu/bj/1010216337.html","average price":"106111","second hand trading":"186","build time":"1992","district":"海淀"}
{"_id":{"$oid":"5900971e5e986a05ba0d958c"},"second hand resource":"6","longtitude":"116.30847930908203","court":"吴家场小区","address":"吴家村路5号院","house type":"住宅","latitude":"39.89606475830078","href":"https://m.fang.com/xiaoqu/bj/1010002183.html","average price":"85547","second hand trading":"1","build time":"2000","district":"海淀"}
{"_id":{"$oid":"590097235e986a05ba0d958d"},"second hand resource":"78","longtitude":"116.33512878417969","court":"清华园小区","address":"成府路清华大学南门对面","house type":"住宅","latitude":"39.99738311767578","href":"https://m.fang.com/xiaoqu/bj/1010000510.html","average price":"115508","second hand trading":"40","build time":"2001","district":"海淀"}
{"_id":{"$oid":"5900972c5e986a05ba0d958e"},"second hand resource":"332","longtitude":"116.2957763671875","court":"曙光花园望山园","address":"曙光花园中路与彰化路交汇处北行250米路东","house type":"住宅","latitude":"39.95005798339844","href":"https://m.fang.com/xiaoqu/bj/1010302639.html","average price":"97448","second hand trading":"6","build time":"2001","district":"海淀"}
{"_id":{"$oid":"5900972e5e986a05ba0d958f"},"second hand resource":"100","longtitude":"116.37358093261719","court":"志新北里","address":"志新路16号院","house type":"住宅","latitude":"39.998661041259766","href":"https://m.fang.com/xiaoqu/bj/1010216537.html","average price":"104166","second hand trading":"158","build time":"2001","district":"海淀"}
{"_id":{"$oid":"590097345e986a05ba0d9590"},"second hand resource":"168","longtitude":"116.2664794921875","court":"泽丰苑","address":"采石路8号院","house type":"住宅","latitude":"39.92552947998047","href":"https://m.fang.com/xiaoqu/bj/1010662815.html","average price":"88141","second hand trading":"39","build time":"2004","district":"海淀"}
{"_id":{"$oid":"590097385e986a05ba0d9591"},"second hand resource":"78","longtitude":"116.33441162109375","court":"科汇社区","address":"中关村三桥路北","house type":"住宅","latitude":"39.993072509765625","href":"https://m.fang.com/xiaoqu/bj/1010216221.html","average price":"108892","second hand trading":"78","build time":"2001","district":"海淀"}
{"_id":{"$oid":"590097455e986a05ba0d9592"},"second hand resource":"257","longtitude":"116.3675308227539","court":"塔院消夏园","address":"牡丹园花园路3号","house type":"住宅","latitude":"39.982601165771484","href":"https://m.fang.com/xiaoqu/bj/1010196947.html","average price":"101589","second hand trading":"440","build time":"1991","district":"海淀"}
{"_id":{"$oid":"590097465e986a05ba0d9593"},"second hand resource":"27","longtitude":"116.3284683227539","court":"有色东区","address":"军博羊坊店路16号","house type":"住宅","latitude":"39.90912628173828","href":"https://m.fang.com/xiaoqu/bj/1010657179.html","average price":"69803","second hand trading":"18","build time":"1990","district":"海淀"}
{"_id":{"$oid":"590097475e986a05ba0d9594"},"second hand resource":"69","longtitude":"116.31018829345703","court":"万泉庄","address":"苏州街人大西门,万泉庄小区","house type":"住宅","latitude":"39.9768180847168","href":"https://m.fang.com/xiaoqu/bj/1010302599.html","average price":"113252","second hand trading":"117","build time":"1991","district":"海淀"}
{"_id":{"$oid":"5900974c5e986a05ba0d9595"},"second hand resource":"61","longtitude":"116.3333969116211","court":"大慧寺12号院","address":"海淀区大慧寺路12号","house type":"住宅","latitude":"39.956363677978516","href":"https://m.fang.com/xiaoqu/bj/1010557263.html","average price":"106291","second hand trading":"32","build time":"1995","district":"海淀"}
{"_id":{"$oid":"5900974f5e986a05ba0d9596"},"second hand resource":"139","longtitude":"116.2896957397461","court":"定慧西里","address":"海淀八里庄街,阜成路与西翠路交叉口西南角","house type":"住宅","latitude":"39.92767333984375","href":"https://m.fang.com/xiaoqu/bj/1010198603.html","average price":"82461","second hand trading":"406","build time":"1990","district":"海淀"}
{"_id":{"$oid":"590097565e986a05ba0d9597"},"second hand resource":"98","longtitude":"116.36561584472656","court":"红联北村","address":"北京邮电大学南门南800米","house type":"住宅","latitude":"39.960304260253906","href":"https://m.fang.com/xiaoqu/bj/1010198183.html","average price":"105506","second hand trading":"205","build time":"1992","district":"海淀"}
{"_id":{"$oid":"590097585e986a05ba0d9598"},"second hand resource":"1","longtitude":"116.3091812133789","court":"翠微路20号院","address":"海淀区翠微路20号","house type":"住宅","latitude":"39.915775299072266","href":"https://m.fang.com/xiaoqu/bj/1010586945.html","average price":"102887","second hand trading":"1","build time":"2000","district":"海淀"}
{"_id":{"$oid":"5900975e5e986a05ba0d9599"},"second hand resource":"232","longtitude":"116.27789306640625","court":"复兴路32号","address":"复兴路32号","house type":"住宅","latitude":"39.913299560546875","href":"https://m.fang.com/xiaoqu/bj/1010341395.html","average price":"106223","second hand trading":"269","build time":"1990","district":"海淀"}
{"_id":{"$oid":"590097685e986a05ba0d959a"},"second hand resource":"1","longtitude":"116.33890533447266","court":"小营西路25号院","address":"小营西路25号院","house type":"住宅","latitude":"40.04266357421875","href":"https://m.fang.com/xiaoqu/bj/1010573783.html","average price":"55251","second hand trading":"NULL","build time":"2000","district":"海淀"}
{"_id":{"$oid":"5900976a5e986a05ba0d959b"},"second hand resource":"14","longtitude":"116.34165954589844","court":"大柳树5号院","address":"海淀区富海中心旁边大柳树5号院","house type":"住宅","latitude":"39.96174240112305","href":"https://m.fang.com/xiaoqu/bj/1010525669.html","average price":"102869","second hand trading":"27","build time":"2000","district":"海淀"}
{"_id":{"$oid":"5900977b5e986a05ba0d959c"},"second hand resource":"2","longtitude":"116.2872085571289","court":"太平路甲26号院","address":"太平路甲26号院","house type":"住宅","latitude":"39.90530014038086","href":"https://m.fang.com/xiaoqu/bj/1010609623.html","average price":"60748","second hand trading":"18","build time":"2000","district":"海淀"}
{"_id":{"$oid":"590097815e986a05ba0d959d"},"second hand resource":"8","longtitude":"116.34403228759766","court":"知春路52号院","address":"海淀区知春路52号,希格玛大厦南侧","house type":"住宅","latitude":"39.98192596435547","href":"https://m.fang.com/xiaoqu/bj/1010216419.html","average price":"88447","second hand trading":"36","build time":"1998","district":"海淀"}
{"_id":{"$oid":"590097865e986a05ba0d959e"},"second hand resource":"329","longtitude":"116.2613525390625","court":"玉阜嘉园","address":"玉泉路6号院","house type":"住宅","latitude":"39.9296989440918","href":"https://m.fang.com/xiaoqu/bj/1010011958.html","average price":"80432","second hand trading":"52","build time":"2001","district":"海淀"}
{"_id":{"$oid":"5900978b5e986a05ba0d959f"},"second hand resource":"113","longtitude":"116.33618927001953","court":"北蜂窝22号院","address":"北蜂窝路22号院","house type":"住宅","latitude":"39.907291412353516","href":"https://m.fang.com/xiaoqu/bj/1010350545.html","average price":"96117","second hand trading":"194","build time":"1993","district":"海淀"}
{"_id":{"$oid":"5900978e5e986a05ba0d95a0"},"second hand resource":"27","longtitude":"116.31884765625","court":"成府北河沿","address":"北京市海淀区北京大学北","house type":"住宅","latitude":"40.00517272949219","href":"https://m.fang.com/xiaoqu/bj/1010482705.html","average price":"101266","second hand trading":"25","build time":"2000","district":"海淀"}
{"_id":{"$oid":"590097945e986a05ba0d95a1"},