{"_id":{"$oid":"58ffce235e986a07088a78de"},"average price":"111957","second hand resource":"1","court":"荣光胡同","district":"西城","house type":"住宅","href":"https://m.fang.com/xiaoqu/bj/1010511505.html","latitude":"39.893592834472656","longtitude":"116.40186309814453","second hand trading":"NULL","build time":"2000","address":"天桥赵锥子胡同南侧荣光胡同"}
{"_id":{"$oid":"58ffce245e986a07088a78df"},"average price":"95111","second hand resource":"5","court":"和平门外西里","district":"西城","house type":"住宅","href":"https://m.fang.com/xiaoqu/bj/1010509467.html","latitude":"39.90556335449219","longtitude":"116.38819885253906","second hand trading":"NULL","build time":"2000","address":"宣武门东大街南侧和平门外西里"}
{"_id":{"$oid":"58ffce255e986a07088a78e0"},"average price":"140259","second hand resource":"9","court":"校场口三条","district":"西城","house type":"住宅","href":"https://m.fang.com/xiaoqu/bj/1010581223.html","latitude":"39.90184020996094","longtitude":"116.37940979003906","second hand trading":"NULL","build time":"2000","address":"宣外大街西侧校场口三条"}
{"_id":{"$oid":"58ffce265e986a07088a78e1"},"average price":"94897","second hand resource":"1","court":"铸钟胡同","district":"西城","house type":"住宅","href":"https://m.fang.com/xiaoqu/bj/1010563303.html","latitude":"39.94889450073242","longtitude":"116.3983383178711","second hand trading":"1","build time":"2000","address":"鼓楼西大街北侧铸钟胡同"}
{"_id":{"$oid":"58ffce275e986a07088a78e2"},"average price":"103041","second hand resource":"1","court":"后海北沿胡同","district":"西城","house type":"住宅","href":"https://m.fang.com/xiaoqu/bj/1010650903.html","latitude":"39.94877624511719","longtitude":"116.39371490478516","second hand trading":"NULL","build time":"2005","address":"鼓楼西大街西南后海北沿"}
{"_id":{"$oid":"58ffce285e986a07088a78e3"},"average price":"142645","second hand resource":"6","court":"太平仓胡同","district":"西城","house type":"住宅","href":"https://m.fang.com/xiaoqu/bj/1010585783.html","latitude":"39.93744659423828","longtitude":"116.38250732421875","second hand trading":"44","build time":"2000","address":"北京西城区太平仓胡同"}
{"_id":{"$oid":"58ffce295e986a07088a78e4"},"average price":"144709","second hand resource":"39","court":"北京尊府","district":"西城","house type":"住宅","href":"https://m.fang.com/xiaoqu/bj/1010308945.html","latitude":"39.90815353393555","longtitude":"116.36735534667969","second hand trading":"21","build time":"2009","address":"闹市口大街西侧"}
{"_id":{"$oid":"58ffce305e986a07088a78e5"},"average price":"119490","second hand resource":"7","court":"景山前街四合院","district":"西城","house type":"住宅","href":"https://m.fang.com/xiaoqu/bj/1010282583.html","latitude":"39.93122863769531","longtitude":"116.40914154052734","second hand trading":"NULL","build time":"2000","address":"美术馆东街25号"}
{"_id":{"$oid":"58ffce315e986a07088a78e6"},"average price":"123740","second hand resource":"9","court":"琉璃厂西街社区","district":"西城","house type":"住宅","href":"https://m.fang.com/xiaoqu/bj/1010212003.html","latitude":"39.901771545410156","longtitude":"116.38890075683594","second hand trading":"NULL","build time":"2000","address":"南新华街琉璃厂西街"}
{"_id":{"$oid":"58ffce315e986a07088a78e7"},"average price":"127598","second hand resource":"49","court":"前门大栅栏胡同","district":"西城","house type":"住宅","href":"https://m.fang.com/xiaoqu/bj/1010538263.html","latitude":"39.90245819091797","longtitude":"116.40363311767578","second hand trading":"NULL","build time":"2000","address":"前门大栅栏胡同"}
{"_id":{"$oid":"58ffce345e986a07088a78e8"},"average price":"121493","second hand resource":"12","court":"东北园","district":"西城","house type":"住宅","href":"https://m.fang.com/xiaoqu/bj/1010566385.html","latitude":"39.904563903808594","longtitude":"116.39385986328125","second hand trading":"NULL","build time":"2000","address":"余家胡同南侧东北园"}
{"_id":{"$oid":"58ffce345e986a07088a78e9"},"average price":"142477","second hand resource":"150","court":"四合上院","district":"西城","house type":"住宅","href":"https://m.fang.com/xiaoqu/bj/1010372543.html","latitude":"39.89781951904297","longtitude":"116.38473510742188","second hand trading":"91","build time":"2011","address":"山西街6号院"}
{"_id":{"$oid":"58ffce355e986a07088a78ea"},"average price":"130645","second hand resource":"7","court":"铁树斜街","district":"西城","house type":"住宅","href":"https://m.fang.com/xiaoqu/bj/1010505185.html","latitude":"39.899993896484375","longtitude":"116.39637756347656","second hand trading":"1","build time":"2000","address":"西城区大栅栏西街西铁树斜街"}
{"_id":{"$oid":"58ffce365e986a07088a78eb"},"average price":"114749","second hand resource":"4","court":"杨梅竹斜街胡同","district":"西城","house type":"住宅","href":"https://m.fang.com/xiaoqu/bj/1010660981.html","latitude":"39.90192413330078","longtitude":"116.39844512939453","second hand trading":"NULL","build time":"NULL","address":"前门大栅栏杨梅竹斜街"}
{"_id":{"$oid":"58ffce365e986a07088a78ec"},"average price":"89441","second hand resource":"8","court":"石头小区","district":"西城","house type":"住宅","href":"https://m.fang.com/xiaoqu/bj/1010217271.html","latitude":"39.899513244628906","longtitude":"116.39739990234375","second hand trading":"NULL","build time":"2001","address":"大栅栏石头胡同29号"}
{"_id":{"$oid":"58ffce375e986a07088a78ed"},"average price":"123597","second hand resource":"17","court":"前门西大街","district":"西城","house type":"住宅","href":"https://m.fang.com/xiaoqu/bj/1010339643.html","latitude":"39.90616226196289","longtitude":"116.39569091796875","second hand trading":"85","build time":"1979","address":"前门西大街和平门地铁C1口"}
{"_id":{"$oid":"58ffce3b5e986a07088a78ee"},"average price":"144817","second hand resource":"3","court":"西砖胡同","district":"西城","house type":"住宅","href":"https://m.fang.com/xiaoqu/bj/1010649241.html","latitude":"39.89238357543945","longtitude":"116.37703704833984","second hand trading":"NULL","build time":"2000","address":"北京市宣武区西砖胡同"}
{"_id":{"$oid":"58ffce3c5e986a07088a78ef"},"average price":"98996","second hand resource":"8","court":"南横西街92号","district":"西城","house type":"住宅","href":"https://m.fang.com/xiaoqu/bj/1010497991.html","latitude":"39.888633728027344","longtitude":"116.37550354003906","second hand trading":"NULL","build time":"2000","address":"菜市口大街南侧南横西街"}
{"_id":{"$oid":"58ffce3c5e986a07088a78f0"},"average price":"64267","second hand resource":"1","court":"光源里","district":"西城","house type":"住宅","href":"https://m.fang.com/xiaoqu/bj/1010216861.html","latitude":"39.883331298828125","longtitude":"116.37254333496094","second hand trading":"8","build time":"2001","address":"白纸坊西街路口红绿灯东侧"}
{"_id":{"$oid":"58ffce3d5e986a07088a78f1"},"average price":"123894","second hand resource":"16","court":"南半截胡同","district":"西城","house type":"住宅","href":"https://m.fang.com/xiaoqu/bj/1010539503.html","latitude":"39.890384674072266","longtitude":"116.37985229492188","second hand trading":"2","build time":"2000","address":"南半截26号"}
{"_id":{"$oid":"58ffce3e5e986a07088a78f2"},"average price":"111679","second hand resource":"1","court":"琉璃厂东街","district":"西城","house type":"住宅","href":"https://m.fang.com/xiaoqu/bj/1010637185.html","latitude":"39.901451110839844","longtitude":"116.39360046386719","second hand trading":"NULL","build time":"1990","address":"南新华街西侧琉璃厂东街"}
{"_id":{"$oid":"58ffce425e986a07088a78f3"},"average price":"135989","second hand resource":"8","court":"前门西后河沿","district":"西城","house type":"住宅","href":"https://m.fang.com/xiaoqu/bj/1010655343.html","latitude":"39.90568923950195","longtitude":"116.40198516845703","second hand trading":"NULL","build time":"2000","address":"前门地铁南西后河沿"}
{"_id":{"$oid":"58ffce425e986a07088a78f4"},"average price":"113593","second hand resource":"5","court":"太平街5号","district":"西城","house type":"住宅","href":"https://m.fang.com/xiaoqu/bj/1010601867.html","latitude":"39.888031005859375","longtitude":"116.39344787597656","second hand trading":"13","build time":"2000","address":"陶然亭路北太平街5号"}
{"_id":{"$oid":"58ffce465e986a07088a78f5"},"average price":"115746","second hand resource":"8","court":"南柳巷","district":"西城","house type":"住宅","href":"https://m.fang.com/xiaoqu/bj/1010636063.html","latitude":"39.8995246887207","longtitude":"116.38735961914062","second hand trading":"25","build time":"2000","address":"琉璃厂西街南侧南柳巷"}
{"_id":{"$oid":"58ffce465e986a07088a78f6"},"average price":"120563","second hand resource":"5","court":"韩家胡同","district":"西城","house type":"住宅","href":"https://m.fang.com/xiaoqu/bj/1010657689.html","latitude":"39.89750671386719","longtitude":"116.39407348632812","second hand trading":"NULL","build time":"1991","address":"大栅栏韩家胡同"}
{"_id":{"$oid":"58ffce4a5e986a07088a78f7"},"average price":"117680","second hand resource":"1","court":"三井小区","district":"西城","house type":"住宅","href":"https://m.fang.com/xiaoqu/bj/1010217191.html","latitude":"39.903961181640625","longtitude":"116.39695739746094","second hand trading":"NULL","build time":"2001","address":"大栅栏煤市街西"}
{"_id":{"$oid":"58ffce4b5e986a07088a78f8"},"average price":"139914","second hand resource":"3","court":"大耳胡同","district":"西城","house type":"住宅","href":"https://m.fang.com/xiaoqu/bj/1010609025.html","latitude":"39.904701232910156","longtitude":"116.39686584472656","second hand trading":"NULL","build time":"2000","address":"北京市西城区大耳胡同"}
{"_id":{"$oid":"58ffce4b5e986a07088a78f9"},"average price":"134937","second hand resource":"278","court":"虎坊路小区","district":"西城","house type":"住宅","href":"https://m.fang.com/xiaoqu/bj/1010303145.html","latitude":"39.89047622680664","longtitude":"116.39385986328125","second hand trading":"43","build time":"1960","address":"虎坊路甲15号"}
{"_id":{"$oid":"58ffce4c5e986a07088a78fa"},"average price":"133725","second hand resource":"2","court":"南新华街四合院","district":"西城","house type":"住宅","href":"https://m.fang.com/xiaoqu/bj/1010282435.html","latitude":"39.90074920654297","longtitude":"116.39142608642578","second hand trading":"NULL","build time":"2000","address":"南新华街与琉璃厂东街交叉口南行150米路东"}
{"_id":{"$oid":"58ffce4d5e986a07088a78fb"},"average price":"126829","second hand resource":"2","court":"培英胡同","district":"西城","house type":"住宅","href":"https://m.fang.com/xiaoqu/bj/1010634783.html","latitude":"39.89777755737305","longtitude":"116.39986419677734","second hand trading":"NULL","build time":"2000","address":"棕树二条与棕树斜街交叉口南行60米路东"}
{"_id":{"$oid":"58ffce4e5e986a07088a78fc"},"average price":"86784","second hand resource":"2","court":"百顺胡同","district":"西城","house type":"住宅","href":"https://m.fang.com/xiaoqu/bj/1010216799.html","latitude":"39.89708709716797","longtitude":"116.3944091796875","second hand trading":"NULL","build time":"2001","address":"大栅栏百顺胡同"}
{"_id":{"$oid":"58ffce4e5e986a07088a78fd"},"average price":"97633","second hand resource":"8","court":"广安门内大街小区","district":"西城","house type":"住宅","href":"https://m.fang.com/xiaoqu/bj/1010649185.html","latitude":"39.895904541015625","longtitude":"116.36739349365234","second hand trading":"52","build time":"2000","address":"北京市宣武区广安门内大街"}
{"_id":{"$oid":"58ffce525e986a07088a78fe"},"average price":"90257","second hand resource":"2","court":"华严路3号院","district":"西城","house type":"住宅","href":"https://m.fang.com/xiaoqu/bj/1010553543.html","latitude":"39.89464569091797","longtitude":"116.39868927001953","second hand trading":"2","build time":"2000","address":"华严路3号院"}
{"_id":{"$oid":"58ffce535e986a07088a78ff"},"average price":"124201","second hand resource":"3","court":"魏染胡同","district":"西城","house type":"住宅","href":"https://m.fang.com/xiaoqu/bj/1010790525.html","latitude":"39.89568328857422","longtitude":"116.38703918457031","second hand trading":"1","build time":"NULL","address":"骡马市大街北侧魏染胡同"}
{"_id":{"$oid":"58ffce545e986a07088a7900"},"average price":"139378","second hand resource":"4","court":"白塔寺小区","district":"西城","house type":"住宅","href":"https://m.fang.com/xiaoqu/bj/1010661895.html","latitude":"39.932960510253906","longtitude":"116.3663558959961","second hand trading":"NULL","build time":"2002","address":"阜成门宫门口五条"}
{"_id":{"$oid":"58ffce545e986a07088a7901"},"average price":"120612","second hand resource":"6","court":"棕树斜街","district":"西城","house type":"住宅","href":"https://m.fang.com/xiaoqu/bj/1010580513.html","latitude":"39.8988151550293","longtitude":"116.3987808227539","second hand trading":"NULL","build time":"2000","address":"北京市宣武区棕树斜街"}
{"_id":{"$oid":"58ffce555e986a07088a7902"},"average price":"106745","second hand resource":"3","court":"东南园小区","district":"西城","house type":"住宅","href":"https://m.fang.com/xiaoqu/bj/1010544143.html","latitude":"39.90052032470703","longtitude":"116.3940200805664","second hand trading":"8","build time":"2000","address":"东琉璃厂大安澜营胡同北侧"}
{"_id":{"$oid":"58ffce565e986a07088a7903"},"average price":"145597","second hand resource":"1","court":"上斜街社区","district":"西城","house type":"住宅","href":"https://m.fang.com/xiaoqu/bj/1010645265.html","latitude":"39.90394973754883","longtitude":"116.37703704833984","second hand trading":"NULL","build time":"2000","address":"宣武门外大街西广内街道上斜街"}
{"_id":{"$oid":"58ffce5b5e986a07088a7904"},"average price":"107614","second hand resource":"1","court":"天桥小区","district":"西城","house type":"住宅","href":"https://m.fang.com/xiaoqu/bj/1010217357.html","latitude":"39.891719818115234","longtitude":"116.40084075927734","second hand trading":"NULL","build time":"2001","address":"福长街二条"}
{"_id":{"$oid":"58ffce5b5e986a07088a7905"},"average price":"125967","second hand resource":"1","court":"前帽胡同","district":"西城","house type":"住宅","href":"https://m.fang.com/xiaoqu/bj/1010658183.html","latitude":"39.94291687011719","longtitude":"116.37605285644531","second hand trading":"NULL","build time":"NULL","address":"赵登禹路东侧前帽胡同"}
{"_id":{"$oid":"58ffce5d5e986a07088a7906"},"average price":"96761","second hand resource":"1","court":"香厂南胡同","district":"西城","house type":"住宅","href":"https://m.fang.com/xiaoqu/bj/1010635263.html","latitude":"39.894168853759766","longtitude":"116.39630126953125","second hand trading":"NULL","build time":"2000","address":"北京市宣武区万明路宣武中医院附近"}
{"_id":{"$oid":"58ffce5d5e986a07088a7907"},"average price":"148810","second hand resource":"7","court":"红线胡同","district":"西城","house type":"住宅","href":"https://m.fang.com/xiaoqu/bj/1010465345.html","latitude":"39.89777755737305","longtitude":"116.38644409179688","second hand trading":"NULL","build time":"1949","address":"虎坊桥骡马市大街北侧,第四十三中学附近"}
{"_id":{"$oid":"58ffce5e5e986a07088a7908"},"average price":"136335","second hand resource":"1","court":"光明胡同","district":"西城","house type":"住宅","href":"https://m.fang.com/xiaoqu/bj/1010598305.html","latitude":"39.92636489868164","longtitude":"116.38743591308594","second hand trading":"NULL","build time":"2000","address":"西安门大街南侧光明胡同"}
{"_id":{"$oid":"58ffce635e986a07088a7909"},"average price":"119890","second hand resource":"2","court":"宣武永安路小区","district":"西城","house type":"住宅","href":"https://m.fang.com/xiaoqu/bj/1010339639.html","latitude":"39.89296340942383","longtitude":"116.39242553710938","second hand trading":"11","build time":"1988","address":"永安路,虎坊路东侧"}
{"_id":{"$oid":"58ffce655e986a07088a790a"},"average price":"146937","second hand resource":"1","court":"西海四合院","district":"西城","house type":"住宅","href":"https://m.fang.com/xiaoqu/bj/1010313805.html","latitude":"39.94831848144531","longtitude":"116.38763427734375","second hand trading":"NULL","build time":"2000","address":"北京市西城区什刹海北沿,什刹海儿童乐园旁"}
{"_id":{"$oid":"58ffce655e986a07088a790b"},"average price":"122821","second hand resource":"1","court":"头发胡同","district":"西城","house type":"住宅","href":"https://m.fang.com/xiaoqu/bj/1010662021.html","latitude":"39.90865707397461","longtitude":"116.3770980834961","second hand trading":"NULL","build time":"1998","address":"北京市西城区宣武门内大街头发胡同"}
{"_id":{"$oid":"58ffce6a5e986a07088a790c"},"average price":"100417","second hand resource":"9","court":"新街口北大街小区","district":"西城","house type":"住宅","href":"https://m.fang.com/xiaoqu/bj/1010581463.html","latitude":"39.950565338134766","longtitude":"116.37871551513672","second hand trading":"1","build time":"2000","address":"西二环积水潭桥南新街口北大街"}
{"_id":{"$oid":"58ffce6b5e986a07088a790d"},"average price":"138424","second hand resource":"13","court":"西绦胡同","district":"西城","house type":"住宅","href":"https://m.fang.com/xiaoqu/bj/1010580549.html","latitude":"39.9543571472168","longtitude":"116.39354705810547","second hand trading":"28","build time":"1988","address":"北京市西城区西绦胡同"}
{"_id":{"$oid":"58ffce6f5e986a07088a790e"},"average price":"143541","second hand resource":"858","court":"荣丰2008","district":"西城","house type":"住宅","href":"https://m.fang.com/xiaoqu/bj/1010170475.html","latitude":"39.90009689331055","longtitude":"116.3427505493164","second hand trading":"985","build time":"2005","address":"广安门外大街305号院"}
{"_id":{"$oid":"58ffce705e986a07088a790f"},"average price":"107364","second hand resource":"1","court":"大安澜营","district":"西城","house type":"住宅","href":"https://m.fang.com/xiaoqu/bj/1010216849.html","latitude":"39.90013885498047","longtitude":"116.39403533935547","second hand trading":"NULL","build time":"2001","address":"南新华街大栅栏"}
{"_id":{"$oid":"58ffce715e986a07088a7910"},"average price":"148423","second hand resource":"1","court":"双柳树头条","district":"西城","house type":"住宅","href":"https://m.fang.com/xiaoqu/bj/1010378145.html","latitude":"39.886348724365234","longtitude":"116.39076232910156","second hand trading":"5","build time":"1999","address":"陶然亭公园北门东北侧"}
{"_id":{"$oid":"58ffce725e986a07088a7911"},"average price":"144019","second hand resource":"1","court":"小六部口胡同","district":"西城","house type":"住宅","href":"https://m.fang.com/xiaoqu/bj/1010662081.html","latitude":"39.911293029785156","longtitude":"116.38835906982422","second hand trading":"NULL","build time":"NULL","address":"北京市西城区小六部口胡同"}
{"_id":{"$oid":"58ffce725e986a07088a7912"},"average price":"94848","second hand resource":"4","court":"石头胡同","district":"西城","house type":"住宅","href":"https://m.fang.com/xiaoqu/bj/1010661705.html","latitude":"39.89842987060547","longtitude":"116.39734649658203","second hand trading":"NULL","build time":"2000","address":"珠市口西大街北石头胡同"}
{"_id":{"$oid":"58ffce735e986a07088a7913"},"average price":"137983","second hand resource":"8","court":"鼓楼西大街小区","district":"西城","house type":"住宅","href":"https://m.fang.com/xiaoqu/bj/1010571503.html","latitude":"39.95265197753906","longtitude":"116.38990783691406","second hand trading":"12","build time":"2000","address":"德胜门桥东南鼓楼西大街"}
{"_id":{"$oid":"58ffce745e986a07088a7914"},"average price":"58417","second hand resource":"3","court":"滨海胡同","district":"西城","house type":"住宅","href":"https://m.fang.com/xiaoqu/bj/1010642985.html","latitude":"39.951316833496094","longtitude":"116.38650512695312","second hand trading":"NULL","build time":"2000","address":"北京市西城区滨海胡同"}
{"_id":{"$oid":"58ffce775e986a07088a7915"},"average price":"120214","second hand resource":"51","court":"宣武门东大街","district":"西城","house type":"住宅","href":"https://m.fang.com/xiaoqu/bj/1010499905.html","latitude":"39.90556335449219","longtitude":"116.3840560913086","second hand trading":"1","build time":"1978","address":"地铁宣武门站东100米宣武门东大街"}
{"_id":{"$oid":"58ffce785e986a07088a7916"},"average price":"84636","second hand resource":"22","court":"广安门外大街","district":"西城","house type":"住宅","href":"https://m.fang.com/xiaoqu/bj/1010649225.html","latitude":"39.89474105834961","longtitude":"116.35137939453125","second hand trading":"98","build time":"2000","address":"北京市宣武区广外大街与手帕口南街交叉口(朗琴国际东侧)"}
{"_id":{"$oid":"58ffce795e986a07088a7917"},"average price":"131822","second hand resource":"1","court":"和平门外东街","district":"西城","house type":"住宅","href":"https://m.fang.com/xiaoqu/bj/1010516763.html","latitude":"39.90577697753906","longtitude":"116.39767456054688","second hand trading":"34","build time":"2000","address":"前门西大街南侧,前门西河沿北侧"}
{"_id":{"$oid":"58ffce7f5e986a07088a7918"},"average price":"103636","second hand resource":"24","court":"黄瓜园小区","district":"西城","house type":"住宅","href":"https://m.fang.com/xiaoqu/bj/1010215969.html","latitude":"39.931827545166016","longtitude":"116.34302520751953","second hand trading":"23","build time":"1991","address":"百万庄南街与百万庄大街交叉口南200米"}
{"_id":{"$oid":"58ffce835e986a07088a7919"},"average price":"84906","second hand resource":"28","court":"小马厂北里","district":"西城","house type":"住宅","href":"https://m.fang.com/xiaoqu/bj/1010580907.html","latitude":"39.903865814208984","longtitude":"116.34355163574219","second hand trading":"NULL","build time":"2000","address":"北京市西城区小马厂北里"}
{"_id":{"$oid":"58ffce875e986a07088a791a"},"average price":"105601","second hand resource":"48","court":"欧园","district":"西城","house type":"住宅","href":"https://m.fang.com/xiaoqu/bj/1010023175.html","latitude":"39.88219451904297","longtitude":"116.33647155761719","second hand trading":"231","build time":"2003","address":"马连道路80号院"}
{"_id":{"$oid":"58ffce8c5e986a07088a791b"},"average price":"101981","second hand resource":"67","court":"法源寺西里","district":"西城","house type":"住宅","href":"https://m.fang.com/xiaoqu/bj/1010193589.html","latitude":"39.89208221435547","longtitude":"116.37464141845703","second hand trading":"87","build time":"1998","address":"法源寺前街7号"}
{"_id":{"$oid":"58ffce8d5e986a07088a791c"},"average price":"87444","second hand resource":"16","court":"恒华国际","district":"西城","house type":"住宅","href":"https://m.fang.com/xiaoqu/bj/1010021862.html","latitude":"39.923927307128906","longtitude":"116.35226440429688","second hand trading":"4","build time":"2003","address":"西城月坛北街26号"}
{"_id":{"$oid":"58ffce915e986a07088a791d"},"average price":"123086","second hand resource":"1","court":"厂桥胡同","district":"西城","house type":"住宅","href":"https://m.fang.com/xiaoqu/bj/1010662867.html","latitude":"39.93992233276367","longtitude":"116.38717651367188","second hand trading":"NULL","build time":"1998","address":"德内大街厂桥胡同"}
{"_id":{"$oid":"58ffce925e986a07088a791e"},"average price":"67069","second hand resource":"8","court":"小马厂东里","district":"西城","house type":"住宅","href":"https://m.fang.com/xiaoqu/bj/1010303671.html","latitude":"39.902652740478516","longtitude":"116.34862518310547","second hand trading":"21","build time":"1998","address":"北京市西城区莲花池东路辅路小马厂东里"}
{"_id":{"$oid":"58ffce965e986a07088a791f"},"average price":"117318","second hand resource":"462","court":"铁二区","district":"西城","house type":"住宅","href":"https://m.fang.com/xiaoqu/bj/1010215865.html","latitude":"39.917266845703125","longtitude":"116.35523986816406","second hand trading":"219","build time":"1982","address":"二七剧场路东(月坛中学西侧)"}
{"_id":{"$oid":"58ffce9c5e986a07088a7920"},"average price":"111888","second hand resource":"24","court":"广外车站西街15号院","district":"西城","house type":"住宅","href":"https://m.fang.com/xiaoqu/bj/1010216865.html","latitude":"39.883628845214844","longtitude":"116.34468841552734","second hand trading":"119","build time":"2001","address":"广外车站西街15号院"}
{"_id":{"$oid":"58ffce9c5e986a07088a7921"},"average price":"101133","second hand resource":"66","court":"乐城","district":"西城","house type":"住宅","href":"https://m.fang.com/xiaoqu/bj/1010035679.html","latitude":"39.88283920288086","longtitude":"116.34627532958984","second hand trading":"434","build time":"2003","address":"红莲南路6号院"}
{"_id":{"$oid":"58ffcea15e986a07088a7922"},"average price":"102287","second hand resource":"44","court":"鸭子桥路","district":"西城","house type":"住宅","href":"https://m.fang.com/xiaoqu/bj/1010580349.html","latitude":"39.87976837158203","longtitude":"116.35299682617188","second hand trading":"169","build time":"1998","address":"鸭子桥路白纸坊桥西200米"}
{"_id":{"$oid":"58ffcea25e986a07088a7923"},"average price":"97270","second hand resource":"6","court":"北小马厂","district":"西城","house type":"住宅","href":"https://m.fang.com/xiaoqu/bj/1010630345.html","latitude":"39.90351867675781","longtitude":"116.34430694580078","second hand trading":"36","build time":"2002","address":"手帕口北街西,北京第十四中学附近"}
{"_id":{"$oid":"58ffcea35e986a07088a7924"},"average price":"137800","second hand resource":"217","court":"四平园","district":"西城","house type":"住宅","href":"https://m.fang.com/xiaoqu/bj/1010217309.html","latitude":"39.888248443603516","longtitude":"116.3862075805664","second hand trading":"256","build time":"1996","address":"南横东街97号(陶然亭虎坊路往东300米)"}
{"_id":{"$oid":"58ffcea45e986a07088a7925"},"average price":"100369","second hand resource":"97","court":"建功北里二区","district":"西城","house type":"住宅","href":"https://m.fang.com/xiaoqu/bj/1010198107.html","latitude":"39.88630676269531","longtitude":"116.35997772216797","second hand trading":"176","build time":"2003","address":"白纸坊西街、白纸坊桥东南角"}
{"_id":{"$oid":"58ffceb05e986a07088a7926"},"average price":"116186","second hand resource":"332","court":"三里河三区","district":"西城","house type":"住宅","href":"https://m.fang.com/xiaoqu/bj/1010326523.html","latitude":"39.91630172729492","longtitude":"116.34796142578125","second hand trading":"113","build time":"1985","address":"阜外大街与三里河路交叉口(地铁1号线地铁站木樨地站北侧)"}
{"_id":{"$oid":"58ffceb05e986a07088a7927"},"average price":"143541","second hand resource":"860","court":"荣丰嘉园","district":"西城","house type":"住宅","href":"https://m.fang.com/xiaoqu/bj/1010170475.html","latitude":"39.90009689331055","longtitude":"116.3427505493164","second hand trading":"985","build time":"2005","address":"广安门外大街305号院"}
{"_id":{"$oid":"58ffceb45e986a07088a7928"},"average price":"100369","second hand resource":"97","court":"建功北里","district":"西城","house type":"住宅","href":"https://m.fang.com/xiaoqu/bj/1010198107.html","latitude":"39.88630676269531","longtitude":"116.35997772216797","second hand trading":"176","build time":"2003","address":"白纸坊西街、白纸坊桥东南角"}
{"_id":{"$oid":"58ffceb55e986a07088a7929"},"average price":"100314","second hand resource":"120","court":"红莲中里","district":"西城","house type":"住宅","href":"https://m.fang.com/xiaoqu/bj/1010198157.html","latitude":"39.887351989746094","longtitude":"116.3399887084961","second hand trading":"280","build time":"1994","address":"红莲路马连道南路华联后身500米(红莲文体广场南侧)"}
{"_id":{"$oid":"58ffceba5e986a07088a792a"},"average price":"42460","second hand resource":"10","court":"车站西街5号院","district":"西城","house type":"住宅","href":"https://m.fang.com/xiaoqu/bj/1010662935.html","latitude":"39.88810348510742","longtitude":"116.34786987304688","second hand trading":"NULL","build time":"1999","address":"手帕口桥向南300米路西"}
{"_id":{"$oid":"58ffcebb5e986a07088a792b"},"average price":"114877","second hand resource":"146","court":"天桥北里","district":"西城","house type":"住宅","href":"https://m.fang.com/xiaoqu/bj/1010303103.html","latitude":"39.89163589477539","longtitude":"116.40302276611328","second hand trading":"155","build time":"2002","address":"天桥南大街与北纬路交叉口西北侧(北京市宣武区天桥医院北侧)"}
{"_id":{"$oid":"58ffcebc5e986a07088a792c"},"average price":"100748","second hand resource":"4","court":"鸭子桥路27号院","district":"西城","house type":"住宅","href":"https://m.fang.com/xiaoqu/bj/1010599383.html","latitude":"39.88119125366211","longtitude":"116.35287475585938","second hand trading":"NULL","build time":"2000","address":"鸭子桥路27号院"}
{"_id":{"$oid":"58ffcec05e986a07088a792d"},"average price":"96347","second hand resource":"93","court":"青春无限","district":"西城","house type":"住宅","href":"https://m.fang.com/xiaoqu/bj/1010037896.html","latitude":"39.89198303222656","longtitude":"116.36906433105469","second hand trading":"37","build time":"2003","address":"牛街西区8号楼"}
{"_id":{"$oid":"58ffcec15e986a07088a792e"},"average price":"98602","second hand resource":"137","court":"南线阁","district":"西城","house type":"住宅","href":"https://m.fang.com/xiaoqu/bj/1010170393.html","latitude":"39.891212463378906","longtitude":"116.35942077636719","second hand trading":"20","build time":"2002","address":"南线阁街与枣林前街路口以北50米路西"}
{"_id":{"$oid":"58ffcec15e986a07088a792f"},"average price":"97642","second hand resource":"358","court":"牛街西里","district":"西城","house type":"住宅","href":"https://m.fang.com/xiaoqu/bj/1010196855.html","latitude":"39.8922233581543","longtitude":"116.36762237548828","second hand trading":"323","build time":"1993","address":"牛街与广安门内大街路口以南50米路西20米"}
{"_id":{"$oid":"58ffcec65e986a07088a7930"},"average price":"96689","second hand resource":"89","court":"南线阁39号院","district":"西城","house type":"住宅","href":"https://m.fang.com/xiaoqu/bj/1010572223.html","latitude":"39.89045333862305","longtitude":"116.35942077636719","second hand trading":"30","build time":"2002","address":"广安门内南线阁街南线阁39号院"}
{"_id":{"$oid":"58ffcec75e986a07088a7931"},"average price":"109535","second hand resource":"23","court":"安德路小区","district":"西城","house type":"住宅","href":"https://m.fang.com/xiaoqu/bj/1010215675.html","latitude":"39.9579963684082","longtitude":"116.4052963256836","second hand trading":"129","build time":"2000","address":"德胜门外安德路与安外大街交叉口路西"}
{"_id":{"$oid":"58ffcec85e986a07088a7932"},"average price":"111535","second hand resource":"3","court":"三里河路4号","district":"西城","house type":"住宅","href":"https://m.fang.com/xiaoqu/bj/1010650663.html","latitude":"39.9427604675293","longtitude":"116.34026336669922","second hand trading":"5","build time":"1982","address":"西城区西直门外大街新苑街三里河路4号"}
{"_id":{"$oid":"58ffcecb5e986a07088a7933"},"average price":"119988","second hand resource":"116","court":"南露园","district":"西城","house type":"住宅","href":"https://m.fang.com/xiaoqu/bj/1010216075.html","latitude":"39.931243896484375","longtitude":"116.34906005859375","second hand trading":"152","build time":"1995","address":"展览馆路31号楼后面"}
{"_id":{"$oid":"58ffcecc5e986a07088a7934"},"average price":"116505","second hand resource":"399","court":"三里河二区","district":"西城","house type":"住宅","href":"https://m.fang.com/xiaoqu/bj/1010341383.html","latitude":"39.91611862182617","longtitude":"116.3490219116211","second hand trading":"213","build time":"2000","address":"三里河东路西侧(北京市铁路第二中学西侧)"}
{"_id":{"$oid":"58ffcece5e986a07088a7935"},"average price":"118047","second hand resource":"273","court":"物资部大院","district":"西城","house type":"住宅","href":"https://m.fang.com/xiaoqu/bj/1010322023.html","latitude":"39.927642822265625","longtitude":"116.34273529052734","second hand trading":"NULL","build time":"1980","address":"月坛北街25号"}
{"_id":{"$oid":"58ffcece5e986a07088a7936"},"average price":"101981","second hand resource":"67","court":"法源寺小区","district":"西城","house type":"住宅","href":"https://m.fang.com/xiaoqu/bj/1010193589.html","latitude":"39.89208221435547","longtitude":"116.37464141845703","second hand trading":"87","build time":"1998","address":"法源寺前街7号"}
{"_id":{"$oid":"58ffcecf5e986a07088a7937"},"average price":"134641","second hand resource":"139","court":"西便门外大街西里","district":"西城","house type":"住宅","href":"https://m.fang.com/xiaoqu/bj/1010217387.html","latitude":"39.90993118286133","longtitude":"116.3584976196289","second hand trading":"NULL","build time":"1986","address":"西便门外大街向南200米"}
{"_id":{"$oid":"58ffced05e986a07088a7938"},"average price":"104643","second hand resource":"266","court":"常青藤嘉园","district":"西城","house type":"住宅","href":"https://m.fang.com/xiaoqu/bj/1010040774.html","latitude":"39.886573791503906","longtitude":"116.3395767211914","second hand trading":"218","build time":"2003","address":"马连道东街2号(红莲路西侧)"}
{"_id":{"$oid":"58ffced45e986a07088a7939"},"average price":"110313","second hand resource":"25","court":"双槐里","district":"西城","house type":"住宅","href":"https://m.fang.com/xiaoqu/bj/1010196919.html","latitude":"39.88772964477539","longtitude":"116.37657165527344","second hand trading":"128","build time":"1995","address":"南横西街与盆儿胡同交叉路口西南角(中国医科大学北京分校东侧)"}
{"_id":{"$oid":"58ffced55e986a07088a793a"},"average price":"93546","second hand resource":"168","court":"馨莲茗园","district":"西城","house type":"住宅","href":"https://m.fang.com/xiaoqu/bj/1010031755.html","latitude":"39.889705657958984","longtitude":"116.33425903320312","second hand trading":"84","build time":"2001","address":"马连道路甲10号"}
{"_id":{"$oid":"58ffced65e986a07088a793b"},"average price":"76231","second hand resource":"34","court":"湾子街社区","district":"西城","house type":"住宅","href":"https://m.fang.com/xiaoqu/bj/1010538383.html","latitude":"39.8903923034668","longtitude":"116.33039855957031","second hand trading":"70","build time":"2000","address":"马连道南街北侧,人口文化园东100米"}
{"_id":{"$oid":"58ffced75e986a07088a793c"},"average price":"137535","second hand resource":"20","court":"文联宿舍","district":"西城","house type":"住宅","href":"https://m.fang.com/xiaoqu/bj/1010527999.html","latitude":"39.97361373901367","longtitude":"116.39390563964844","second hand trading":"103","build time":"2000","address":"北三环中路10号院"}
{"_id":{"$oid":"58ffced85e986a07088a793d"},"average price":"94461","second hand resource":"70","court":"建功南里","district":"西城","house type":"住宅","href":"https://m.fang.com/xiaoqu/bj/1010198105.html","latitude":"39.88271713256836","longtitude":"116.35928344726562","second hand trading":"69","build time":"1996","address":"南菜园街1号"}
{"_id":{"$oid":"58ffced85e986a07088a793e"},"average price":"98903","second hand resource":"128","court":"恬心家园","district":"西城","house type":"住宅","href":"https://m.fang.com/xiaoqu/bj/1010012531.html","latitude":"39.88469314575195","longtitude":"116.36334991455078","second hand trading":"101","build time":"2003","address":"白纸坊西街17号院"}
{"_id":{"$oid":"58ffcedf5e986a07088a793f"},"average price":"73304","second hand resource":"22","court":"政泰家园","district":"西城","house type":"住宅","href":"https://m.fang.com/xiaoqu/bj/1010037515.html","latitude":"39.87994384765625","longtitude":"116.3523178100586","second hand trading":"92","build time":"2014","address":"鸭子桥45号院"}
{"_id":{"$oid":"58ffcee05e986a07088a7940"},"average price":"105243","second hand resource":"80","court":"禄长街头条19号院","district":"西城","house type":"住宅","href":"https://m.fang.com/xiaoqu/bj/1010657971.html","latitude":"39.88835525512695","longtitude":"116.39653778076172","second hand trading":"50","build time":"1996","address":"禄长街头条19号院"}
{"_id":{"$oid":"58ffcee25e986a07088a7941"},"average price":"96776","second hand resource":"81","court":"南运巷","district":"西城","house type":"住宅","href":"https://m.fang.com/xiaoqu/bj/1010303063.html","latitude":"39.88825225830078","longtitude":"116.35729217529297","second hand trading":"64","build time":"1995","address":"枣林前街与广安门南街路口以东50米路南"}
{"_id":{"$oid":"58ffcee65e986a07088a7942"},"average price":"106256","second hand resource":"21","court":"车站西街13号院","district":"西城","house type":"住宅","href":"https://m.fang.com/xiaoqu/bj/1010598183.html","latitude":"39.88608169555664","longtitude":"116.34832763671875","second hand trading":"28","build time":"2000","address":"车站西街13号院"}
{"_id":{"$oid":"58ffcee75e986a07088a7943"},"average price":"108197","second hand resource":"124","court":"车站西街","district":"西城","house type":"住宅","href":"https://m.fang.com/xiaoqu/bj/1010122969.html","latitude":"39.887176513671875","longtitude":"116.34806060791016","second hand trading":"NULL","build time":"NULL","address":"广安门车站西街与红莲南街交界西南角"}
{"_id":{"$oid":"58ffcee75e986a07088a7944"},"average price":"111399","second hand resource":"737","court":"远见国际公寓","district":"西城","house type":"住宅","href":"https://m.fang.com/xiaoqu/bj/1010037813.html","latitude":"39.892784118652344","longtitude":"116.34352111816406","second hand trading":"440","build time":"2005","address":"红居北街与莲花河东侧路交叉点东北角"}
{"_id":{"$oid":"58ffcee85e986a07088a7945"},"average price":"111399","second hand resource":"737","court":"远见名苑","district":"西城","house type":"住宅","href":"https://m.fang.com/xiaoqu/bj/1010037813.html","latitude":"39.892784118652344","longtitude":"116.34352111816406","second hand trading":"440","build time":"2005","address":"红居北街与莲花河东侧路交叉点东北角"}
{"_id":{"$oid":"58ffcee85e986a07088a7946"},"average price":"105601","second hand resource":"48","court":"欧园北欧印象","district":"西城","house type":"住宅","href":"https://m.fang.com/xiaoqu/bj/1010023175.html","latitude":"39.88219451904297","longtitude":"116.33647155761719","second hand trading":"231","build time":"2003","address":"马连道路80号院"}
{"_id":{"$oid":"58ffcee95e986a07088a7947"},"average price":"113265","second hand resource":"75","court":"马连道中里三区","district":"西城","house type":"住宅","href":"https://m.fang.com/xiaoqu/bj/1010342263.html","latitude":"39.890655517578125","longtitude":"116.33712005615234","second hand trading":"1","build time":"1997","address":"广安门外马连道中里三区"}
{"_id":{"$oid":"58ffceea5e986a07088a7948"},"average price":"100316","second hand resource":"82","court":"牛街18","district":"西城","house type":"住宅","href":"https://m.fang.com/xiaoqu/bj/1010067127.html","latitude":"39.89167022705078","longtitude":"116.37074279785156","second hand trading":"53","build time":"2004","address":"牛街南口东侧牛街18号"}
{"_id":{"$oid":"58ffceed5e986a07088a7949"},"average price":"99509","second hand resource":"48","court":"西环景苑","district":"西城","house type":"住宅","href":"https://m.fang.com/xiaoqu/bj/1010003348.html","latitude":"39.89016342163086","longtitude":"116.33728790283203","second hand trading":"45","build time":"2001","address":"马连道南街2号"}
{"_id":{"$oid":"58ffceef5e986a07088a794a"},"average price":"106719","second hand resource":"40","court":"槐柏树街南里","district":"西城","house type":"住宅","href":"https://m.fang.com/xiaoqu/bj/1010573987.html","latitude":"39.90135192871094","longtitude":"116.36102294921875","second hand trading":"137","build time":"1992","address":"西便门内大街东侧槐柏树街南里"}
{"_id":{"$oid":"58ffceef5e986a07088a794b"},"average price":"77360","second hand resource":"8","court":"文慧园1号楼","district":"西城","house type":"住宅","href":"https://m.fang.com/xiaoqu/bj/1010611307.html","latitude":"39.9550666809082","longtitude":"116.36894989013672","second hand trading":"63","build time":"2002","address":"文慧园1号楼"}
{"_id":{"$oid":"58ffcef15e986a07088a794c"},"average price":"138760","second hand resource":"123","court":"姚家井小区","district":"西城","house type":"住宅","href":"https://m.fang.com/xiaoqu/bj/1010217453.html","latitude":"39.88138198852539","longtitude":"116.38218688964844","second hand trading":"77","build time":"1992","address":"陶然亭里仁东街"}
{"_id":{"$oid":"58ffcef55e986a07088a794d"},"average price":"84111","second hand resource":"7","court":"南线阁5号院","district":"西城","house type":"住宅","href":"https://m.fang.com/xiaoqu/bj/1010646383.html","latitude":"39.89471435546875","longtitude":"116.35919952392578","second hand trading":"13","build time":"1972","address":"广安门桥往南50米,南线阁5号院"}
{"_id":{"$oid":"58ffcef75e986a07088a794e"},"average price":"94577","second hand resource":"46","court":"玺源台","district":"西城","house type":"住宅","href":"https://m.fang.com/xiaoqu/bj/1010721791.html","latitude":"39.90088653564453","longtitude":"116.33628845214844","second hand trading":"19","build time":"2013","address":"广安门外大街305号,莲花池东路,会城门桥以南200米"}
{"_id":{"$oid":"58ffcefc5e986a07088a794f"},"average price":"88396","second hand resource":"16","court":"军博小区","district":"西城","house type":"住宅","href":"https://m.fang.com/xiaoqu/bj/1010216037.html","latitude":"39.91678237915039","longtitude":"116.34857177734375","second hand trading":"NULL","build time":"2000","address":"军博复兴门9号"}
{"_id":{"$oid":"58ffcefc5e986a07088a7950"},"average price":"136996","second hand resource":"25","court":"北营房东里","district":"西城","house type":"住宅","href":"https://m.fang.com/xiaoqu/bj/1010482223.html","latitude":"39.931800842285156","longtitude":"116.35847473144531","second hand trading":"125","build time":"1993","address":"西二环阜成门外大街北侧"}
{"_id":{"$oid":"58ffcefd5e986a07088a7951"},"average price":"133251","second hand resource":"503","court":"展览路小区","district":"西城","house type":"住宅","href":"https://m.fang.com/xiaoqu/bj/1010216779.html","latitude":"39.94101333618164","longtitude":"116.35137176513672","second hand trading":"404","build time":"1998","address":"展览路31号(地铁车公庄站南)"}
{"_id":{"$oid":"58ffcefe5e986a07088a7952"},"average price":"132328","second hand resource":"13","court":"新华社家属楼","district":"西城","house type":"住宅","href":"https://m.fang.com/xiaoqu/bj/1010581431.html","latitude":"39.90673065185547","longtitude":"116.37364196777344","second hand trading":"NULL","build time":"1994","address":"西城区宣武门西大街乙97号(新华社西侧)"}
{"_id":{"$oid":"58ffceff5e986a07088a7953"},"average price":"104824","second hand resource":"1","court":"永居胡同","district":"西城","house type":"住宅","href":"https://m.fang.com/xiaoqu/bj/1010582105.html","latitude":"39.896522521972656","longtitude":"116.35152435302734","second hand trading":"31","build time":"2000","address":"广安门外永居胡同"}
{"_id":{"$oid":"58ffcf005e986a07088a7954"},"average price":"76231","second hand resource":"34","court":"湾子","district":"西城","house type":"住宅","href":"https://m.fang.com/xiaoqu/bj/1010538383.html","latitude":"39.8903923034668","longtitude":"116.33039855957031","second hand trading":"70","build time":"2000","address":"马连道南街北侧,人口文化园东100米"}
{"_id":{"$oid":"58ffcf035e986a07088a7955"},"average price":"127172","second hand resource":"178","court":"南礼士路三条","district":"西城","house type":"住宅","href":"https://m.fang.com/xiaoqu/bj/1010216073.html","latitude":"39.91825866699219","longtitude":"116.3582534790039","second hand trading":"57","build time":"1987","address":"复兴门外大街南礼士路三条"}
{"_id":{"$oid":"58ffcf045e986a07088a7956"},"average price":"92406","second hand resource":"75","court":"锦上国际公寓","district":"西城","house type":"住宅","href":"https://m.fang.com/xiaoqu/bj/1010179383.html","latitude":"39.89905548095703","longtitude":"116.35812377929688","second hand trading":"67","build time":"2001","address":"核桃园西街37号院"}
{"_id":{"$oid":"58ffcf0c5e986a07088a7957"},"average price":"117086","second hand resource":"79","court":"右安门内西街甲2号院","district":"西城","house type":"住宅","href":"https://m.fang.com/xiaoqu/bj/1010581583.html","latitude":"39.878047943115234","longtitude":"116.36917877197266","second hand trading":"159","build time":"2000","address":"右安门内西街甲2号院"}
{"_id":{"$oid":"58ffcf0d5e986a07088a7958"},"average price":"127540","second hand resource":"103","court":"西直门南大街小区","district":"西城","house type":"住宅","href":"https://m.fang.com/xiaoqu/bj/1010425185.html","latitude":"39.94024658203125","longtitude":"116.36162567138672","second hand trading":"217","build time":"1983","address":"西直门南大街18号"}
{"_id":{"$oid":"58ffcf0d5e986a07088a7959"},"average price":"117410","second hand resource":"5","court":"白纸坊东街25号院","district":"西城","house type":"住宅","href":"https://m.fang.com/xiaoqu/bj/1010631103.html","latitude":"39.88223648071289","longtitude":"116.3665771484375","second hand trading":"12","build time":"2000","address":"白纸坊东街25号,半步桥小学附近"}
{"_id":{"$oid":"58ffcf155e986a07088a795a"},"average price":"104106","second hand resource":"107","court":"马连道中里一区","district":"西城","house type":"住宅","href":"https://m.fang.com/xiaoqu/bj/1010516761.html","latitude":"39.89287185668945","longtitude":"116.33724975585938","second hand trading":"4","build time":"1995","address":"马连道路与马连道北街交叉路口东南侧(三义里小学东侧)"}
{"_id":{"$oid":"58ffcf155e986a07088a795b"},"average price":"121627","second hand resource":"189","court":"复兴门外大街","district":"西城","house type":"住宅","href":"https://m.fang.com/xiaoqu/bj/1010216071.html","latitude":"39.9135856628418","longtitude":"116.34454345703125","second hand trading":"294","build time":"1979","address":"复兴门外大街木樨地地铁站两侧50米"}
{"_id":{"$oid":"58ffcf1a5e986a07088a795c"},"average price":"131831","second hand resource":"24","court":"阳光丽景","district":"西城","house type":"住宅","href":"https://m.fang.com/xiaoqu/bj/1010012318.html","latitude":"39.97139358520508","longtitude":"116.39289855957031","second hand trading":"202","build time":"2012","address":"黄寺大街23号院"}
{"_id":{"$oid":"58ffcf1d5e986a07088a795d"},"average price":"121927","second hand resource":"78","court":"万明园","district":"西城","house type":"住宅","href":"https://m.fang.com/xiaoqu/bj/1010216163.html","latitude":"39.92732620239258","longtitude":"116.36016845703125","second hand trading":"59","build time":"1995","address":"阜成门桥以南100米路西"}
{"_id":{"$oid":"58ffcf1e5e986a07088a795e"},"average price":"103672","second hand resource":"4","court":"广安门车站西街17号","district":"西城","house type":"住宅","href":"https://m.fang.com/xiaoqu/bj/1010385109.html","latitude":"39.8840446472168","longtitude":"116.34677124023438","second hand trading":"72","build time":"1996","address":"广安门车站西街与红莲南路路口以北200米路西"}
{"_id":{"$oid":"58ffcf225e986a07088a795f"},"average price":"114959","second hand resource":"307","court":"宣武门西大街","district":"西城","house type":"住宅","href":"https://m.fang.com/xiaoqu/bj/1010308755.html","latitude":"39.90483474731445","longtitude":"116.37191009521484","second hand trading":"205","build time":"1979","address":"宣武门外大街与宣武门西大街交汇处西南角"}
{"_id":{"$oid":"58ffcf225e986a07088a7960"},"average price":"122548","second hand resource":"55","court":"广外南街","district":"西城","house type":"住宅","href":"https://m.fang.com/xiaoqu/bj/1010493023.html","latitude":"39.89320373535156","longtitude":"116.35298919677734","second hand trading":"1","build time":"2000","address":"西二环广安门立交桥西南广外南街"}
{"_id":{"$oid":"58ffcf265e986a07088a7961"},"average price":"121627","second hand resource":"189","court":"复兴门外大街小区","district":"西城","house type":"住宅","href":"https://m.fang.com/xiaoqu/bj/1010216071.html","latitude":"39.9135856628418","longtitude":"116.34454345703125","second hand trading":"294","build time":"1979","address":"复兴门外大街木樨地地铁站两侧50米"}
{"_id":{"$oid":"58ffcf275e986a07088a7962"},"average price":"117852","second hand resource":"98","court":"月坛南街小区","district":"西城","house type":"住宅","href":"https://m.fang.com/xiaoqu/bj/1010216773.html","latitude":"39.919551849365234","longtitude":"116.3506088256836","second hand trading":"8","build time":"NULL","address":"三里河月坛南街"}
{"_id":{"$oid":"58ffcf285e986a07088a7963"},"average price":"90397","second hand resource":"42","court":"南线里","district":"西城","house type":"住宅","href":"https://m.fang.com/xiaoqu/bj/1010325919.html","latitude":"39.891929626464844","longtitude":"116.3583984375","second hand trading":"39","build time":"2002","address":"广安门内南线阁水利部边上"}
{"_id":{"$oid":"58ffcf2c5e986a07088a7964"},"average price":"126197","second hand resource":"31","court":"核工业部宿舍","district":"西城","house type":"住宅","href":"https://m.fang.com/xiaoqu/bj/1010591513.html","latitude":"39.92328643798828","longtitude":"116.3568115234375","second hand trading":"90","build time":"1990","address":"西城区月坛西街乙2号院"}
{"_id":{"$oid":"58ffcf2c5e986a07088a7965"},"average price":"121854","second hand resource":"270","court":"木樨地北里","district":"西城","house type":"住宅","href":"https://m.fang.com/xiaoqu/bj/1010216067.html","latitude":"39.90952682495117","longtitude":"116.34708404541016","second hand trading":"93","build time":"1997","address":"白云路路口以西100米(首都博物馆西侧)"}
{"_id":{"$oid":"58ffcf2d5e986a07088a7966"},"average price":"137547","second hand resource":"53","court":"北露园","district":"西城","house type":"住宅","href":"https://m.fang.com/xiaoqu/bj/1010303683.html","latitude":"39.932472229003906","longtitude":"116.34793090820312","second hand trading":"261","build time":"1993","address":"展览馆路与扣钟胡同交叉口南侧(百万庄南街10号院东侧)"}
{"_id":{"$oid":"58ffcf2e5e986a07088a7967"},"average price":"79739","second hand resource":"13","court":"信建里","district":"西城","house type":"住宅","href":"https://m.fang.com/xiaoqu/bj/1010217427.html","latitude":"39.881961822509766","longtitude":"116.37586975097656","second hand trading":"111","build time":"1986","address":"里仁街与半步桥街交汇处东北"}
{"_id":{"$oid":"58ffcf2f5e986a07088a7968"},"average price":"131266","second hand resource":"193","court":"月坛北街小区","district":"西城","house type":"住宅","href":"https://m.fang.com/xiaoqu/bj/1010521983.html","latitude":"39.92396926879883","longtitude":"116.35413360595703","second hand trading":"296","build time":"1983","address":"地铁阜成门站西南月坛北街路北"}
{"_id":{"$oid":"58ffcf2f5e986a07088a7969"},"average price":"90432","second hand resource":"43","court":"长椿街东里","district":"西城","house type":"住宅","href":"https://m.fang.com/xiaoqu/bj/1010303105.html","latitude":"39.904239654541016","longtitude":"116.37118530273438","second hand trading":"NULL","build time":"1999","address":"长椿街地铁南500米"}
{"_id":{"$oid":"58ffcf305e986a07088a796a"},"average price":"79307","second hand resource":"1","court":"月坛南街2号院","district":"西城","house type":"住宅","href":"https://m.fang.com/xiaoqu/bj/1010608703.html","latitude":"39.92295837402344","longtitude":"116.3569107055664","second hand trading":"5","build time":"2000","address":"月坛南街2号院"}
{"_id":{"$oid":"58ffcf315e986a07088a796b"},"average price":"110268","second hand resource":"3","court":"展览路12号楼","district":"西城","house type":"住宅","href":"https://m.fang.com/xiaoqu/bj/1010635589.html","latitude":"39.936100006103516","longtitude":"116.35050201416016","second hand trading":"1","build time":"2000","address":"展览馆路12号楼"}
{"_id":{"$oid":"58ffcf345e986a07088a796c"},"average price":"147768","second hand resource":"388","court":"三里河一区","district":"西城","house type":"住宅","href":"https://m.fang.com/xiaoqu/bj/1010326525.html","latitude":"39.921817779541016","longtitude":"116.3487777709961","second hand trading":"264","build time":"1999","address":"三里河东路西侧,月坛北街南侧"}
{"_id":{"$oid":"58ffcf355e986a07088a796d"},"average price":"106862","second hand resource":"259","court":"平原里","district":"西城","house type":"住宅","href":"https://m.fang.com/xiaoqu/bj/1010196871.html","latitude":"39.88786315917969","longtitude":"116.37916564941406","second hand trading":"352","build time":"1998","address":"菜市口大街南横西街,建功医院对面"}
{"_id":{"$oid":"58ffcf3b5e986a07088a796e"},"average price":"133448","second hand resource":"94","court":"阜成门南大街","district":"西城","house type":"住宅","href":"https://m.fang.com/xiaoqu/bj/1010553823.html","latitude":"39.92674255371094","longtitude":"116.3624496459961","second hand trading":"99","build time":"2000","address":"阜成门南大街7号"}
{"_id":{"$oid":"58ffcf3f5e986a07088a796f"},"average price":"101338","second hand resource":"6","court":"卫生部小区","district":"西城","house type":"住宅","href":"https://m.fang.com/xiaoqu/bj/1010216291.html","latitude":"39.95539474487305","longtitude":"116.35546112060547","second hand trading":"77","build time":"2001","address":"交大东路52号"}
{"_id":{"$oid":"58ffcf3f5e986a07088a7970"},"average price":"123505","second hand resource":"193","court":"车公庄北里","district":"西城","house type":"住宅","href":"https://m.fang.com/xiaoqu/bj/1010198401.html","latitude":"39.940696716308594","longtitude":"116.35391235351562","second hand trading":"397","build time":"1979","address":"车公庄大街与车公庄北街交叉路口西北方向(官园桥西100米)"}
{"_id":{"$oid":"58ffcf465e986a07088a7971"},"average price":"127269","second hand resource":"292","court":"北礼士路小区","district":"西城","house type":"住宅","href":"https://m.fang.com/xiaoqu/bj/1010215379.html","latitude":"39.9396858215332","longtitude":"116.35966491699219","second hand trading":"5","build time":"1991","address":"车公庄大街人民医院西门南走100米"}
{"_id":{"$oid":"58ffcf475e986a07088a7972"},"average price":"123947","second hand resource":"90","court":"团结大院","district":"西城","house type":"住宅","href":"https://m.fang.com/xiaoqu/bj/1010197039.html","latitude":"39.943599700927734","longtitude":"116.35699462890625","second hand trading":"94","build time":"1990","address":"西直门外南路北侧"}
{"_id":{"$oid":"58ffcf475e986a07088a7973"},"average price":"119487","second hand resource":"27","court":"月坛北小街1号院","district":"西城","house type":"住宅","href":"https://m.fang.com/xiaoqu/bj/1010673623.html","latitude":"39.928077697753906","longtitude":"116.35233306884766","second hand trading":"30","build time":"2000","address":"月坛北小街1号院"}
{"_id":{"$oid":"58ffcf485e986a07088a7974"},"average price":"103158","second hand resource":"1","court":"百万庄午区","district":"西城","house type":"住宅","href":"https://m.fang.com/xiaoqu/bj/1010658313.html","latitude":"39.936790466308594","longtitude":"116.34646606445312","second hand trading":"17","build time":"1956","address":"北京西城区百万庄大街,车公庄大街南侧"}
{"_id":{"$oid":"58ffcf485e986a07088a7975"},"average price":"117318","second hand resource":"462","court":"二七剧场路东里小区","district":"西城","house type":"住宅","href":"https://m.fang.com/xiaoqu/bj/1010215865.html","latitude":"39.917266845703125","longtitude":"116.35523986816406","second hand trading":"219","build time":"1982","address":"二七剧场路东(月坛中学西侧)"}
{"_id":{"$oid":"58ffcf495e986a07088a7976"},"average price":"121739","second hand resource":"251","court":"玉桃园","district":"西城","house type":"住宅","href":"https://m.fang.com/xiaoqu/bj/1010197259.html","latitude":"39.9478874206543","longtitude":"116.3653335571289","second hand trading":"341","build time":"2001","address":"西内大街马相胡同10号(地铁2号线西直门站东侧)"}
{"_id":{"$oid":"58ffcf505e986a07088a7977"},"average price":"103541","second hand resource":"60","court":"手帕口南街小区","district":"西城","house type":"住宅","href":"https://m.fang.com/xiaoqu/bj/1010579111.html","latitude":"39.893306732177734","longtitude":"116.34953308105469","second hand trading":"25","build time":"2005","address":"广安门手帕口南街"}
{"_id":{"$oid":"58ffcf515e986a07088a7978"},"average price":"109196","second hand resource":"47","court":"阜成门外大街","district":"西城","house type":"住宅","href":"https://m.fang.com/xiaoqu/bj/1010347623.html","latitude":"39.930084228515625","longtitude":"116.3521499633789","second hand trading":"77","build time":"1980","address":"阜成门地铁站西侧"}
{"_id":{"$oid":"58ffcf525e986a07088a7979"},"average price":"135132","second hand resource":"152","court":"扣钟北里","district":"西城","house type":"住宅","href":"https://m.fang.com/xiaoqu/bj/1010321783.html","latitude":"39.93273162841797","longtitude":"116.34717559814453","second hand trading":"194","build time":"2004","address":"阜成门外,天意商场旁边"}
{"_id":{"$oid":"58ffcf535e986a07088a797a"},"average price":"129793","second hand resource":"27","court":"太平桥大街6号","district":"西城","house type":"住宅","href":"https://m.fang.com/xiaoqu/bj/1010529665.html","latitude":"39.92835235595703","longtitude":"116.37146759033203","second hand trading":"23","build time":"2000","address":"太平桥大街6号"}
{"_id":{"$oid":"58ffcf555e986a07088a797b"},"average price":"78394","second hand resource":"1","court":"广安门外南街小区","district":"西城","house type":"住宅","href":"https://m.fang.com/xiaoqu/bj/1010649227.html","latitude":"39.88916015625","longtitude":"116.35343933105469","second hand trading":"212","build time":"1993","address":"北京市宣武区广安门外南街"}
{"_id":{"$oid":"58ffcf555e986a07088a797c"},"average price":"125787","second hand resource":"80","court":"右安门内西街甲10号","district":"西城","house type":"住宅","href":"https://m.fang.com/xiaoqu/bj/1010375277.html","latitude":"39.87723922729492","longtitude":"116.36580657958984","second hand trading":"222","build time":"1987","address":"右内西街甲10号院"}
{"_id":{"$oid":"58ffcf555e986a07088a797d"},"average price":"100369","second hand resource":"97","court":"建功北里三区","district":"西城","house type":"住宅","href":"https://m.fang.com/xiaoqu/bj/1010198107.html","latitude":"39.88630676269531","longtitude":"116.35997772216797","second hand trading":"176","build time":"2003","address":"白纸坊西街、白纸坊桥东南角"}
{"_id":{"$oid":"58ffcf575e986a07088a797e"},"average price":"97767","second hand resource":"67","court":"似海怡家","district":"西城","house type":"住宅","href":"https://m.fang.com/xiaoqu/bj/1010003759.html","latitude":"39.89443588256836","longtitude":"116.36932373046875","second hand trading":"110","build time":"2000","address":"广安门内大街202号"}
{"_id":{"$oid":"58ffcf585e986a07088a797f"},"average price":"118797","second hand resource":"221","court":"新壁街小区","district":"西城","house type":"住宅","href":"https://m.fang.com/xiaoqu/bj/1010385423.html","latitude":"39.90803146362305","longtitude":"116.38765716552734","second hand trading":"157","build time":"2004","address":"和平门地铁站向北200米"}
{"_id":{"$oid":"58ffcf5c5e986a07088a7980"},"average price":"141362","second hand resource":"787","court":"椿树园","district":"西城","house type":"住宅","href":"https://m.fang.com/xiaoqu/bj/1010001432.html","latitude":"39.900062561035156","longtitude":"116.385009765625","second hand trading":"392","build time":"1999","address":"西草厂街椿树园(宣武门外大街东100米)"}
{"_id":{"$oid":"58ffcf5d5e986a07088a7981"},"average price":"148195","second hand resource":"194","court":"庄胜二期","district":"西城","house type":"住宅","href":"https://m.fang.com/xiaoqu/bj/1010030920.html","latitude":"39.90366744995117","longtitude":"116.38713073730469","second hand trading":"186","build time":"2005","address":"宣武门外大街6号(城铁宣武门站南200米)"}
{"_id":{"$oid":"58ffcf615e986a07088a7982"},"average price":"87114","second hand resource":"30","court":"小市口胡同","district":"西城","house type":"住宅","href":"https://m.fang.com/xiaoqu/bj/1010508907.html","latitude":"39.9570198059082","longtitude":"116.39157104492188","second hand trading":"69","build time":"2000","address":"小市口胡同3号院"}
{"_id":{"$oid":"58ffcf615e986a07088a7983"},"average price":"98561","second hand resource":"15","court":"西直门外南路","district":"西城","house type":"住宅","href":"https://m.fang.com/xiaoqu/bj/1010532903.html","latitude":"39.942073822021484","longtitude":"116.34503173828125","second hand trading":"70","build time":"1996","address":"西直门外南路21号院"}
{"_id":{"$oid":"58ffcf625e986a07088a7984"},"average price":"139188","second hand resource":"11","court":"北礼士路62号院","district":"西城","house type":"住宅","href":"https://m.fang.com/xiaoqu/bj/1010599025.html","latitude":"39.935096740722656","longtitude":"116.36029815673828","second hand trading":"51","build time":"1997","address":"北礼士路62号院"}
{"_id":{"$oid":"58ffcf635e986a07088a7985"},"average price":"140338","second hand resource":"482","court":"新明胡同","district":"西城","house type":"住宅","href":"https://m.fang.com/xiaoqu/bj/1010015262.html","latitude":"39.965423583984375","longtitude":"116.3832015991211","second hand trading":"220","build time":"2000","address":"新明胡同路甲1号"}
{"_id":{"$oid":"58ffcf645e986a07088a7986"},"average price":"101832","second hand resource":"71","court":"广安苑","district":"西城","house type":"住宅","href":"https://m.fang.com/xiaoqu/bj/1010341965.html","latitude":"39.89274597167969","longtitude":"116.35124969482422","second hand trading":"87","build time":"2002","address":"广安门车站东街13号院南区"}
{"_id":{"$oid":"58ffcf675e986a07088a7987"},"average price":"130816","second hand resource":"116","court":"新街口西里三区","district":"西城","house type":"住宅","href":"https://m.fang.com/xiaoqu/bj/1010303689.html","latitude":"39.94987869262695","longtitude":"116.3726577758789","second hand trading":"271","build time":"2001","address":"德胜门西大街与北草厂胡同交叉口以南(全国工商联办公楼南侧)"}
{"_id":{"$oid":"58ffcf685e986a07088a7988"},"average price":"80226","second hand resource":"5","court":"右安门内大街甲10号","district":"西城","house type":"住宅","href":"https://m.fang.com/xiaoqu/bj/1010582623.html","latitude":"39.88583755493164","longtitude":"116.37076568603516","second hand trading":"NULL","build time":"2000","address":"白纸坊右内甲10号院"}
{"_id":{"$oid":"58ffcf6f5e986a07088a7989"},"average price":"127420","second hand resource":"2","court":"百万庄北里","district":"西城","house type":"住宅","href":"https://m.fang.com/xiaoqu/bj/1010199663.html","latitude":"39.93690872192383","longtitude":"116.34146881103516","second hand trading":"NULL","build time":"2000","address":"三里河路车公庄大街路口南15米路东"}
{"_id":{"$oid":"58ffcf6f5e986a07088a798a"},"average price":"108603","second hand resource":"20","court":"莲花池东路甲5号院","district":"西城","house type":"住宅","href":"https://m.fang.com/xiaoqu/bj/1010493523.html","latitude":"39.90468215942383","longtitude":"116.34219360351562","second hand trading":"37","build time":"2001","address":"莲花池东路,白云桥公安大学附近"}
{"_id":{"$oid":"58ffcf745e986a07088a798b"},"average price":"117086","second hand resource":"79","court":"右内西街甲2号院","district":"西城","house type":"住宅","href":"https://m.fang.com/xiaoqu/bj/1010581583.html","latitude":"39.878047943115234","longtitude":"116.36917877197266","second hand trading":"159","build time":"2000","address":"右安门内西街甲2号院"}
{"_id":{"$oid":"58ffcf755e986a07088a798c"},"average price":"99260","second hand resource":"34","court":"天宁寺东里","district":"西城","house type":"住宅","href":"https://m.fang.com/xiaoqu/bj/1010217337.html","latitude":"39.89830780029297","longtitude":"116.35447692871094","second hand trading":"137","build time":"1990","address":"莲花池东路与广安门北滨河路交叉口"}
{"_id":{"$oid":"58ffcf755e986a07088a798d"},"average price":"83727","second hand resource":"25","court":"天宁寺西里","district":"西城","house type":"住宅","href":"https://m.fang.com/xiaoqu/bj/1010303673.html","latitude":"39.899658203125","longtitude":"116.35006713867188","second hand trading":"58","build time":"1987","address":"白云桥南手帕口北街"}
{"_id":{"$oid":"58ffcf795e986a07088a798e"},"average price":"114221","second hand resource":"109","court":"新街口西里二区","district":"西城","house type":"住宅","href":"https://m.fang.com/xiaoqu/bj/1010303691.html","latitude":"39.95079040527344","longtitude":"116.37419128417969","second hand trading":"122","build time":"2004","address":"北二环路内东教场胡同西侧(全国工商联办公楼东南侧)"}
{"_id":{"$oid":"58ffcf7a5e986a07088a798f"},"average price":"122230","second hand resource":"26","court":"南营房一区","district":"西城","house type":"住宅","href":"https://m.fang.com/xiaoqu/bj/1010025594.html","latitude":"39.924530029296875","longtitude":"116.35533905029297","second hand trading":"19","build time":"2002","address":"西城月坛北街3号"}
{"_id":{"$oid":"58ffcf7b5e986a07088a7990"},"average price":"103438","second hand resource":"33","court":"里仁街6号院","district":"西城","house type":"住宅","href":"https://m.fang.com/xiaoqu/bj/1010527347.html","latitude":"39.88185119628906","longtitude":"116.37721252441406","second hand trading":"78","build time":"1985","address":"菜市口大街西侧,里仁街6号"}
{"_id":{"$oid":"58ffcf7c5e986a07088a7991"},"average price":"98321","second hand resource":"87","court":"白广路6号院","district":"西城","house type":"住宅","href":"https://m.fang.com/xiaoqu/bj/1010608985.html","latitude":"39.89259338378906","longtitude":"116.36656951904297","second hand trading":"60","build time":"1995","address":"白广路6号院"}
{"_id":{"$oid":"58ffcf815e986a07088a7992"},"average price":"137980","second hand resource":"31","court":"北礼士路191号院","district":"西城","house type":"住宅","href":"https://m.fang.com/xiaoqu/bj/1010516867.html","latitude":"39.93952178955078","longtitude":"116.3597412109375","second hand trading":"366","build time":"2000","address":"北礼士路191号,阜外心血管医院附近"}
{"_id":{"$oid":"58ffcf815e986a07088a7993"},"average price":"85356","second hand resource":"23","court":"盆儿胡同62号院","district":"西城","house type":"住宅","href":"https://m.fang.com/xiaoqu/bj/1010558145.html","latitude":"39.88520431518555","longtitude":"116.37771606445312","second hand trading":"18","build time":"2000","address":"南横西街经济日报社后面"}
{"_id":{"$oid":"58ffcf825e986a07088a7994"},"average price":"143536","second hand resource":"197","court":"新文化街小区","district":"西城","house type":"住宅","href":"https://m.fang.com/xiaoqu/bj/1010216751.html","latitude":"39.9094123840332","longtitude":"116.37297058105469","second hand trading":"238","build time":"1992","address":"新文化街60号(闹市口大街路口以东)"}
{"_id":{"$oid":"58ffcf835e986a07088a7995"},"average price":"113532","second hand resource":"74","court":"真武庙三里","district":"西城","house type":"住宅","href":"https://m.fang.com/xiaoqu/bj/1010727643.html","latitude":"39.9091682434082","longtitude":"116.35128784179688","second hand trading":"15","build time":"1992","address":"真武庙路四条北侧,白云路东"}
{"_id":{"$oid":"58ffcf845e986a07088a7996"},"average price":"140338","second hand resource":"482","court":"新明胡同住宅","district":"西城","house type":"住宅","href":"https://m.fang.com/xiaoqu/bj/1010015262.html","latitude":"39.965423583984375","longtitude":"116.3832015991211","second hand trading":"220","build time":"2000","address":"新明胡同路甲1号"}
{"_id":{"$oid":"58ffcf885e986a07088a7997"},"average price":"130543","second hand resource":"97","court":"复兴门北大街小区","district":"西城","house type":"住宅","href":"https://m.fang.com/xiaoqu/bj/1010215901.html","latitude":"39.91415786743164","longtitude":"116.36162567138672","second hand trading":"39","build time":"2001","address":"复兴门北大街,复兴门地铁站西北角"}
{"_id":{"$oid":"58ffcf8a5e986a07088a7998"},"average price":"127540","second hand resource":"103","court":"西直门南大街","district":"西城","house type":"住宅","href":"https://m.fang.com/xiaoqu/bj/1010425185.html","latitude":"39.94024658203125","longtitude":"116.36162567138672","second hand trading":"217","build time":"1983","address":"西直门南大街18号"}
{"_id":{"$oid":"58ffcf8a5e986a07088a7999"},"average price":"99090","second hand resource":"5","court":"育德胡同","district":"西城","house type":"住宅","href":"https://m.fang.com/xiaoqu/bj/1010641583.html","latitude":"39.93938064575195","longtitude":"116.37564849853516","second hand trading":"10","build time":"2000","address":"新街口南大街西侧育德胡同"}
{"_id":{"$oid":"58ffcf8b5e986a07088a799a"},"average price":"144653","second hand resource":"69","court":"双旗杆东里","district":"西城","house type":"住宅","href":"https://m.fang.com/xiaoqu/bj/1010344503.html","latitude":"39.973026275634766","longtitude":"116.3958969116211","second hand trading":"308","build time":"1994","address":"德胜门外黄寺大街21号"}
{"_id":{"$oid":"58ffcf8b5e986a07088a799b"},"average price":"137594","second hand resource":"69","court":"富国里","district":"西城","house type":"住宅","href":"https://m.fang.com/xiaoqu/bj/1010215907.html","latitude":"39.93577194213867","longtitude":"116.37205505371094","second hand trading":"203","build time":"1998","address":"赵登禹路与富国街交叉口中廊下胡同16号(先锋商务写字楼西侧)"}
{"_id":{"$oid":"58ffcf8c5e986a07088a799c"},"average price":"81606","second hand resource":"5","court":"展览路甲22号院","district":"西城","house type":"住宅","href":"https://m.fang.com/xiaoqu/bj/1010660739.html","latitude":"39.93571472167969","longtitude":"116.3516616821289","second hand trading":"6","build time":"1982","address":"展览馆路甲22号院"}
{"_id":{"$oid":"58ffcf905e986a07088a799d"},"average price":"144078","second hand resource":"70","court":"百万庄大街甲21号院","district":"西城","house type":"住宅","href":"https://m.fang.com/xiaoqu/bj/1010199513.html","latitude":"39.93488693237305","longtitude":"116.35432434082031","second hand trading":"50","build time":"2001","address":"百万庄大街甲21号院"}
{"_id":{"$oid":"58ffcf905e986a07088a799e"},"average price":"100369","second hand resource":"97","court":"建功北里五区","district":"西城","house type":"住宅","href":"https://m.fang.com/xiaoqu/bj/1010198107.html","latitude":"39.88630676269531","longtitude":"116.35997772216797","second hand trading":"176","build time":"2003","address":"白纸坊西街、白纸坊桥东南角"}
{"_id":{"$oid":"58ffcf925e986a07088a799f"},"average price":"103049","second hand resource":"112","court":"手帕口北街小区","district":"西城","house type":"住宅","href":"https://m.fang.com/xiaoqu/bj/1010502203.html","latitude":"39.89664840698242","longtitude":"116.34813690185547","second hand trading":"58","build time":"2000","address":"手帕口北街与广安门外大街交汇西北处"}
{"_id":{"$oid":"58ffcf975e986a07088a79a0"},"average price":"129563","second hand resource":"7","court":"南纬路","district":"西城","house type":"住宅","href":"https://m.fang.com/xiaoqu/bj/1010649235.html","latitude":"39.88729476928711","longtitude":"116.40100860595703","second hand trading":"13","build time":"2000","address":"太平街东侧南纬路"}
{"_id":{"$oid":"58ffcf985e986a07088a79a1"},"average price":"94743","second hand resource":"34","court":"长椿里","district":"西城","house type":"住宅","href":"https://m.fang.com/xiaoqu/bj/1010343065.html","latitude":"39.89957046508789","longtitude":"116.36870574951172","second hand trading":"5","build time":"1981","address":"宣武医院北约100米路西"}
{"_id":{"$oid":"58ffcf995e986a07088a79a2"},"average price":"105367","second hand resource":"11","court":"百万庄小区","district":"西城","house type":"住宅","href":"https://m.fang.com/xiaoqu/bj/1010215367.html","latitude":"39.935142517089844","longtitude":"116.34455108642578","second hand trading":"20","build time":"1998","address":"百万庄大街,甘家口大厦斜对面"}
{"_id":{"$oid":"58ffcf9a5e986a07088a79a3"},"average price":"132370","second hand resource":"103","court":"南纬路2号院","district":"西城","house type":"住宅","href":"https://m.fang.com/xiaoqu/bj/1010217111.html","latitude":"39.886043548583984","longtitude":"116.40129089355469","second hand trading":"80","build time":"2000","address":"南纬路2号院"}
{"_id":{"$oid":"58ffcf9e5e986a07088a79a4"},"average price":"110119","second hand resource":"284","court":"西便门东里","district":"西城","house type":"住宅","href":"https://m.fang.com/xiaoqu/bj/1010217381.html","latitude":"39.905479431152344","longtitude":"116.36006927490234","second hand trading":"121","build time":"1983","address":"西便门内大街与复兴门南大街交叉路口东北角(北京八中初中部南侧)"}
{"_id":{"$oid":"58ffcfa25e986a07088a79a5"},"average price":"133571","second hand resource":"65","court":"复兴门南大街住宅区","district":"西城","house type":"住宅","href":"https://m.fang.com/xiaoqu/bj/1010368343.html","latitude":"39.90798568725586","longtitude":"116.36227416992188","second hand trading":"79","build time":"1982","address":"西二环外复兴门桥向南"}
{"_id":{"$oid":"58ffcfa35e986a07088a79a6"},"average price":"141008","second hand resource":"357","court":"新风南里","district":"西城","house type":"住宅","href":"https://m.fang.com/xiaoqu/bj/1010216739.html","latitude":"39.96711349487305","longtitude":"116.38236236572266","second hand trading":"256","build time":"1997","address":"新风街以南,三帆中学对面"}
{"_id":{"$oid":"58ffcfa65e986a07088a79a7"},"average price":"147058","second hand resource":"416","court":"马甸南村","district":"西城","house type":"住宅","href":"https://m.fang.com/xiaoqu/bj/1010216063.html","latitude":"39.97334671020508","longtitude":"116.38424682617188","second hand trading":"345","build time":"1993","address":"德胜门外大街(马甸桥西南角)"}
{"_id":{"$oid":"58ffcfa75e986a07088a79a8"},"average price":"84115","second hand resource":"13","court":"育人里","district":"西城","house type":"住宅","href":"https://m.fang.com/xiaoqu/bj/1010344465.html","latitude":"39.8808708190918","longtitude":"116.3714599609375","second hand trading":"41","build time":"1999","address":"白纸坊东街与右安门内大街交叉口向南250米"}
{"_id":{"$oid":"58ffcfab5e986a07088a79a9"},"average price":"102058","second hand resource":"22","court":"骡马市大街","district":"西城","house type":"住宅","href":"https://m.fang.com/xiaoqu/bj/1010344023.html","latitude":"39.896121978759766","longtitude":"116.38943481445312","second hand trading":"25","build time":"1988","address":"和平门虎坊桥骡马市大街"}
{"_id":{"$oid":"58ffcfad5e986a07088a79aa"},"average price":"130443","second hand resource":"37","court":"二七剧场路13号院","district":"西城","house type":"住宅","href":"https://m.fang.com/xiaoqu/bj/1010625175.html","latitude":"39.915733337402344","longtitude":"116.3521728515625","second hand trading":"NULL","build time":"2000","address":"二七剧场路13号院"}
{"_id":{"$oid":"58ffcfad5e986a07088a79ab"},"average price":"115185","second hand resource":"20","court":"天宁寺南里","district":"西城","house type":"住宅","href":"https://m.fang.com/xiaoqu/bj/1010217345.html","latitude":"39.897857666015625","longtitude":"116.35124969482422","second hand trading":"80","build time":"1992","address":"天宁寺前街手帕口北街路口以东50米路南"}
{"_id":{"$oid":"58ffcfb15e986a07088a79ac"},"average price":"111524","second hand resource":"284","court":"西便门西里","district":"西城","house type":"住宅","href":"https://m.fang.com/xiaoqu/bj/1010001438.html","latitude":"39.904762268066406","longtitude":"116.35701751708984","second hand trading":"173","build time":"2000","address":"西便门内大街与莲花池东路交叉口北行150米路西"}
{"_id":{"$oid":"58ffcfb25e986a07088a79ad"},"average price":"100255","second hand resource":"6","court":"前桃园","district":"西城","house type":"住宅","href":"https://m.fang.com/xiaoqu/bj/1010322103.html","latitude":"39.94918441772461","longtitude":"116.36738586425781","second hand trading":"45","build time":"1993","address":"马相胡同与西直门内大街路口北180米路西"}
{"_id":{"$oid":"58ffcfb35e986a07088a79ae"},"average price":"89429","second hand resource":"40","court":"红土店","district":"西城","house type":"住宅","href":"https://m.fang.com/xiaoqu/bj/1010328719.html","latitude":"39.88692855834961","longtitude":"116.38410186767578","second hand trading":"53","build time":"1998","address":"陶然亭地铁站东北角"}
{"_id":{"$oid":"58ffcfbd5e986a07088a79af"},"average price":"114577","second hand resource":"748","court":"朗琴园","district":"西城","house type":"住宅","href":"https://m.fang.com/xiaoqu/bj/1010012049.html","latitude":"39.8924560546875","longtitude":"116.34806823730469","second hand trading":"237","build time":"2005","address":"手帕口南街1号院"}
{"_id":{"$oid":"58ffcfbe5e986a07088a79b0"},"average price":"146106","second hand resource":"31","court":"灵境胡同","district":"西城","house type":"住宅","href":"https://m.fang.com/xiaoqu/bj/1010507185.html","latitude":"39.92055892944336","longtitude":"116.38523864746094","second hand trading":"61","build time":"1982","address":"西单北大街东侧灵境胡同"}
{"_id":{"$oid":"58ffcfbe5e986a07088a79b1"},"average price":"145525","second hand resource":"10","court":"华裕园","district":"西城","house type":"住宅","href":"https://m.fang.com/xiaoqu/bj/1010493525.html","latitude":"39.93168640136719","longtitude":"116.38821411132812","second hand trading":"56","build time":"2000","address":"西什库大街26号院"}
{"_id":{"$oid":"58ffcfc35e986a07088a79b2"},"average price":"84128","second hand resource":"20","court":"后桃园9号院","district":"西城","house type":"住宅","href":"https://m.fang.com/xiaoqu/bj/1010541063.html","latitude":"39.95014953613281","longtitude":"116.36763763427734","second hand trading":"40","build time":"2000","address":"地铁4号线新街口站西北角"}
{"_id":{"$oid":"58ffcfc35e986a07088a79b3"},"average price":"138525","second hand resource":"27","court":"广电总局西便门小区","district":"西城","house type":"住宅","href":"https://m.fang.com/xiaoqu/bj/1010062860.html","latitude":"39.906429290771484","longtitude":"116.35786437988281","second hand trading":"45","build time":"1995","address":"北滨河路2号"}
{"_id":{"$oid":"58ffcfc45e986a07088a79b4"},"average price":"133043","second hand resource":"76","court":"白云观北里","district":"西城","house type":"住宅","href":"https://m.fang.com/xiaoqu/bj/1010215351.html","latitude":"39.90587615966797","longtitude":"116.35364532470703","second hand trading":"NULL","build time":"1992","address":"天宁寺桥北200米"}
{"_id":{"$oid":"58ffcfc55e986a07088a79b5"},"average price":"114302","second hand resource":"404","court":"真武庙","district":"西城","house type":"住宅","href":"https://m.fang.com/xiaoqu/bj/1010216783.html","latitude":"39.90898132324219","longtitude":"116.35208129882812","second hand trading":"210","build time":"1992","address":"西便门外大街西侧(中化大厦南侧)"}
{"_id":{"$oid":"58ffcfc65e986a07088a79b6"},"average price":"115780","second hand resource":"35","court":"半步桥13号院","district":"西城","house type":"住宅","href":"https://m.fang.com/xiaoqu/bj/1010657953.html","latitude":"39.87902069091797","longtitude":"116.37344360351562","second hand trading":"NULL","build time":"1992","address":"右内大街东侧半步桥13号"}
{"_id":{"$oid":"58ffcfc65e986a07088a79b7"},"average price":"117584","second hand resource":"1","court":"展览馆路乙4号楼","district":"西城","house type":"住宅","href":"https://m.fang.com/xiaoqu/bj/1010595783.html","latitude":"39.94199752807617","longtitude":"116.3512191772461","second hand trading":"NULL","build time":"2000","address":"展览馆路乙4号楼"}
{"_id":{"$oid":"58ffcfc95e986a07088a79b8"},"average price":"141864","second hand resource":"3","court":"鲍家街","district":"西城","house type":"住宅","href":"https://m.fang.com/xiaoqu/bj/1010540905.html","latitude":"39.909061431884766","longtitude":"116.36739349365234","second hand trading":"24","build time":"2000","address":"中央音乐学院东鲍家街"}
{"_id":{"$oid":"58ffcfc95e986a07088a79b9"},"average price":"134972","second hand resource":"84","court":"文华园","district":"西城","house type":"住宅","href":"https://m.fang.com/xiaoqu/bj/1010348423.html","latitude":"39.93737030029297","longtitude":"116.36100006103516","second hand trading":"47","build time":"1998","address":"西城区车公庄大街2号院"}
{"_id":{"$oid":"58ffcfcb5e986a07088a79ba"},"average price":"112692","second hand resource":"64","court":"塔院胡同","district":"西城","house type":"住宅","href":"https://m.fang.com/xiaoqu/bj/1010382191.html","latitude":"39.96342086791992","longtitude":"116.38721466064453","second hand trading":"130","build time":"1997","address":"德胜门外大街德胜凯旋大厦东侧"}
{"_id":{"$oid":"58ffcfce5e986a07088a79bb"},"average price":"119218","second hand resource":"16","court":"真武家园","district":"西城","house type":"住宅","href":"https://m.fang.com/xiaoqu/bj/1010673555.html","latitude":"39.910823822021484","longtitude":"116.35587310791016","second hand trading":"NULL","build time":"NULL","address":"真武路二条南侧"}
{"_id":{"$oid":"58ffcfcf5e986a07088a79bc"},"average price":"80255","second hand resource":"9","court":"南纬路10号院","district":"西城","house type":"住宅","href":"https://m.fang.com/xiaoqu/bj/1010657667.html","latitude":"39.886844635009766","longtitude":"116.39851379394531","second hand trading":"NULL","build time":"1987","address":"宣武区先农坛南纬路10号院"}
{"_id":{"$oid":"58ffcfd65e986a07088a79bd"},"average price":"121455","second hand resource":"70","court":"北营房西里","district":"西城","house type":"住宅","href":"https://m.fang.com/xiaoqu/bj/1010303697.html","latitude":"39.93242645263672","longtitude":"116.35486602783203","second hand trading":"98","build time":"1998","address":"阜成门外北营房中街往西200米"}
{"_id":{"$oid":"58ffcfda5e986a07088a79be"},"average price":"119342","second hand resource":"52","court":"六铺炕一区","district":"西城","house type":"住宅","href":"https://m.fang.com/xiaoqu/bj/1010216059.html","latitude":"39.96188735961914","longtitude":"116.39911651611328","second hand trading":"387","build time":"1992","address":"鼓楼外大街西侧安德里北街南"}
{"_id":{"$oid":"58ffcfdb5e986a07088a79bf"},"average price":"146031","second hand resource":"65","court":"百万庄大街21号院","district":"西城","house type":"住宅","href":"https://m.fang.com/xiaoqu/bj/1010833387.html","latitude":"39.934818267822266","longtitude":"116.35259246826172","second hand trading":"47","build time":"NULL","address":"百万庄大街21号院"}
{"_id":{"$oid":"58ffcfdf5e986a07088a79c0"},"average price":"74595","second hand resource":"3","court":"朝阳庵小区","district":"西城","house type":"住宅","href":"https://m.fang.com/xiaoqu/bj/1010215399.html","latitude":"39.94077682495117","longtitude":"116.34329223632812","second hand trading":"52","build time":"1986","address":"车公庄大街二里沟车站北300米"}
{"_id":{"$oid":"58ffcfe35e986a07088a79c1"},"average price":"149713","second hand resource":"15","court":"普天大院","district":"西城","house type":"住宅","href":"https://m.fang.com/xiaoqu/bj/1010503343.html","latitude":"39.959598541259766","longtitude":"116.37874603271484","second hand trading":"134","build time":"2000","address":"新外大街28号院"}
{"_id":{"$oid":"58ffcfea5e986a07088a79c2"},"average price":"127214","second hand resource":"360","court":"汽南小区","district":"西城","house type":"住宅","href":"https://m.fang.com/xiaoqu/bj/1010303675.html","latitude":"39.90803909301758","longtitude":"116.34819793701172","second hand trading":"133","build time":"1992","address":"白云观街北里与白云路交叉口西南角(白云观西侧)"}
{"_id":{"$oid":"58ffcfeb5e986a07088a79c3"},"average price":"111727","second hand resource":"6","court":"月坛南街19号院","district":"西城","house type":"住宅","href":"https://m.fang.com/xiaoqu/bj/1010609989.html","latitude":"39.91997146606445","longtitude":"116.35482788085938","second hand trading":"14","build time":"2000","address":"月坛南街19号院"}
{"_id":{"$oid":"58ffcff05e986a07088a79c4"},"average price":"106097","second hand resource":"46","court":"如意里","district":"西城","house type":"住宅","href":"https://m.fang.com/xiaoqu/bj/1010308629.html","latitude":"39.94906997680664","longtitude":"116.3707046508789","second hand trading":"188","build time":"1992","address":"北草厂街与西直门内大街交岔口以北70米"}
{"_id":{"$oid":"58ffcff55e986a07088a79c5"},"average price":"91974","second hand resource":"7","court":"车公庄大街甲5号楼","district":"西城","house type":"住宅","href":"https://m.fang.com/xiaoqu/bj/1010674313.html","latitude":"39.938594818115234","longtitude":"116.3570327758789","second hand trading":"1","build time":"1993","address":"北京市车公庄大街甲5号"}
{"_id":{"$oid":"58ffcff65e986a07088a79c6"},"average price":"91932","second hand resource":"4","court":"展览馆路40号","district":"西城","house type":"住宅","href":"https://m.fang.com/xiaoqu/bj/1010580031.html","latitude":"39.93062973022461","longtitude":"116.3509750366211","second hand trading":"NULL","build time":"1985","address":"西城区展览馆路40号"}
{"_id":{"$oid":"58ffcff75e986a07088a79c7"},"average price":"109731","second hand resource":"76","court":"阜北小区","district":"西城","house type":"住宅","href":"https://m.fang.com/xiaoqu/bj/1010568903.html","latitude":"39.92921447753906","longtitude":"116.3409652709961","second hand trading":"72","build time":"1982","address":"白堆子地铁站东北角"}
{"_id":{"$oid":"58ffd0005e986a07088a79c8"},"average price":"103094","second hand resource":"4","court":"阜成门外北四巷","district":"西城","house type":"住宅","href":"https://m.fang.com/xiaoqu/bj/1010724803.html","latitude":"39.93018341064453","longtitude":"116.3534164428711","second hand trading":"24","build time":"1990","address":"北京市西城区阜成门外大街北四巷"}
{"_id":{"$oid":"58ffd0015e986a07088a79c9"},"average price":"108227","second hand resource":"81","court":"海格国际","district":"西城","house type":"住宅","href":"https://m.fang.com/xiaoqu/bj/1010074181.html","latitude":"39.901023864746094","longtitude":"116.38201141357422","second hand trading":"14","build time":"2005","address":"宣武门外大街20号"}
{"_id":{"$oid":"58ffd0025e986a07088a79ca"},"average price":"132536","second hand resource":"15","court":"官苑八号","district":"西城","house type":"住宅","href":"https://m.fang.com/xiaoqu/bj/1010071419.html","latitude":"39.934844970703125","longtitude":"116.36710357666016","second hand trading":"108","build time":"2004","address":"官园胡同甲1号"}
{"_id":{"$oid":"58ffd0095e986a07088a79cb"},"average price":"104476","second hand resource":"24","court":"莲花池东路24号院","district":"西城","house type":"住宅","href":"https://m.fang.com/xiaoqu/bj/1010216961.html","latitude":"39.9022102355957","longtitude":"116.34525299072266","second hand trading":"44","build time":"2001","address":"莲花池东路,白云桥西约100米路南"}
{"_id":{"$oid":"58ffd00e5e986a07088a79cc"},"average price":"116797","second hand resource":"10","court":"阜成门北大街","district":"西城","house type":"住宅","href":"https://m.fang.com/xiaoqu/bj/1010538103.html","latitude":"39.933807373046875","longtitude":"116.36344146728516","second hand trading":"44","build time":"2000","address":"阜成门北大街"}
{"_id":{"$oid":"58ffd0185e986a07088a79cd"},"average price":"73232","second hand resource":"9","court":"月坛北街10号","district":"西城","house type":"住宅","href":"https://m.fang.com/xiaoqu/bj/1010698591.html","latitude":"39.9239501953125","longtitude":"116.35679626464844","second hand trading":"1","build time":"1989","address":"月坛北街10号楼"}
{"_id":{"$oid":"58ffd01b5e986a07088a79ce"},"average price":"115538","second hand resource":"40","court":"月坛南街37号院","district":"西城","house type":"住宅","href":"https://m.fang.com/xiaoqu/bj/1010376543.html","latitude":"39.920021057128906","longtitude":"116.35346984863281","second hand trading":"21","build time":"1997","address":"月坛南街37号院"}
{"_id":{"$oid":"58ffd01c5e986a07088a79cf"},"average price":"88952","second hand resource":"7","court":"月坛南街18号","district":"西城","house type":"住宅","href":"https://m.fang.com/xiaoqu/bj/1010724675.html","latitude":"39.91939926147461","longtitude":"116.3506088256836","second hand trading":"NULL","build time":"NULL","address":"月坛南街18号"}
{"_id":{"$oid":"58ffd01d5e986a07088a79d0"},"average price":"122514","second hand resource":"48","court":"地藏庵小区","district":"西城","house type":"住宅","href":"https://m.fang.com/xiaoqu/bj/1010215759.html","latitude":"39.916385650634766","longtitude":"116.35660552978516","second hand trading":"55","build time":"1951","address":"南礼士路地藏庵中巷"}
{"_id":{"$oid":"58ffd0225e986a07088a79d1"},"average price":"117557","second hand resource":"68","court":"月坛南街北里","district":"西城","house type":"住宅","href":"https://m.fang.com/xiaoqu/bj/1010216771.html","latitude":"39.91946792602539","longtitude":"116.35645294189453","second hand trading":"50","build time":"1992","address":"三里河月坛南街二七剧场路"}
{"_id":{"$oid":"58ffd0265e986a07088a79d2"},"average price":"132565","second hand resource":"2","court":"德宝新园","district":"西城","house type":"住宅","href":"https://m.fang.com/xiaoqu/bj/1010198591.html","latitude":"39.9460563659668","longtitude":"116.35358428955078","second hand trading":"182","build time":"2000","address":"西外大街德宝饭店后面"}
{"_id":{"$oid":"58ffd02c5e986a07088a79d3"},"average price":"122472","second hand resource":"35","court":"三里河北街3号院","district":"西城","house type":"住宅","href":"https://m.fang.com/xiaoqu/bj/1010375183.html","latitude":"39.92202377319336","longtitude":"116.3452377319336","second hand trading":"66","build time":"1998","address":"三里河北街西侧"}
{"_id":{"$oid":"58ffd0375e986a07088a79d4"},"average price":"132092","second hand resource":"43","court":"西便门外东大街","district":"西城","house type":"住宅","href":"https://m.fang.com/xiaoqu/bj/1010579631.html","latitude":"39.90633010864258","longtitude":"116.35979461669922","second hand trading":"NULL","build time":"2000","address":"复兴门南大街西侧西便门外东大街2号"}
{"_id":{"$oid":"58ffd0455e986a07088a79d5"},"average price":"103183","second hand resource":"55","court":"红居南街","district":"西城","house type":"住宅","href":"https://m.fang.com/xiaoqu/bj/1010341393.html","latitude":"39.88965606689453","longtitude":"116.3486328125","second hand trading":"53","build time":"1995","address":"宣武区红居南街,北京六十六中东侧"}
{"_id":{"$oid":"58ffd0495e986a07088a79d6"},"average price":"104895","second hand resource":"17","court":"白纸坊东街小区","district":"西城","house type":"住宅","href":"https://m.fang.com/xiaoqu/bj/1010463185.html","latitude":"39.884361267089844","longtitude":"116.37950134277344","second hand trading":"42","build time":"2001","address":"陶然亭地铁口西白纸坊东街"}
{"_id":{"$oid":"58ffd0505e986a07088a79d7"},"average price":"125202","second hand resource":"8","court":"月坛西街西里","district":"西城","house type":"住宅","href":"https://m.fang.com/xiaoqu/bj/1010721295.html","latitude":"39.9207763671875","longtitude":"116.35517120361328","second hand trading":"48","build time":"1975","address":"三里河东路东侧月坛西街西里"}
{"_id":{"$oid":"58ffd0585e986a07088a79d8"},"average price":"125638","second hand resource":"11","court":"三里河东路7号院","district":"西城","house type":"住宅","href":"https://m.fang.com/xiaoqu/bj/1010556943.html","latitude":"39.9251708984375","longtitude":"116.35005950927734","second hand trading":"79","build time":"1992","address":"三里河东路7号院"}
{"_id":{"$oid":"58ffd05c5e986a07088a79d9"},"average price":"129628","second hand resource":"80","court":"新302温馨家园","district":"西城","house type":"住宅","href":"https://m.fang.com/xiaoqu/bj/1010657339.html","latitude":"39.90932846069336","longtitude":"116.36026000976562","second hand trading":"32","build time":"1999","address":"西便门外大街4号院"}
{"_id":{"$oid":"58ffd05d5e986a07088a79da"},"average price":"106287","second hand resource":"8","court":"右安门西街","district":"西城","house type":"住宅","href":"https://m.fang.com/xiaoqu/bj/1010649267.html","latitude":"39.8762092590332","longtitude":"116.36763763427734","second hand trading":"30","build time":"2000","address":"北京市宣武区右安门西街"}
{"_id":{"$oid":"58ffd05d5e986a07088a79db"},"average price":"117852","second hand resource":"98","court":"月坛南小区","district":"西城","house type":"住宅","href":"https://m.fang.com/xiaoqu/bj/1010216773.html","latitude":"39.919551849365234","longtitude":"116.3506088256836","second hand trading":"8","build time":"NULL","address":"三里河月坛南街"}
{"_id":{"$oid":"58ffd0615e986a07088a79dc"},"average price":"148452","second hand resource":"28","court":"爱民里小区","district":"西城","house type":"住宅","href":"https://m.fang.com/xiaoqu/bj/1010199383.html","latitude":"39.93541717529297","longtitude":"116.38748931884766","second hand trading":"271","build time":"1992","address":"西什库大街与地安门西大街路口以南150米路东"}
{"_id":{"$oid":"58ffd0685e986a07088a79dd"},"average price":"86806","second hand resource":"26","court":"西便门内大街79号院","district":"西城","house type":"住宅","href":"https://m.fang.com/xiaoqu/bj/1010547823.html","latitude":"39.901371002197266","longtitude":"116.35801696777344","second hand trading":"28","build time":"2000","address":"西便门内大街79号院"}
{"_id":{"$oid":"58ffd0695e986a07088a79de"},"average price":"105186","second hand resource":"43","court":"大井胡同","district":"西城","house type":"住宅","href":"https://m.fang.com/xiaoqu/bj/1010303693.html","latitude":"39.95884323120117","longtitude":"116.39141082763672","second hand trading":"73","build time":"1983","address":"教场口街与大井胡同路口西南角"}
{"_id":{"$oid":"58ffd0695e986a07088a79df"},"average price":"115185","second hand resource":"20","court":"天宁寺前街南里","district":"西城","house type":"住宅","href":"https://m.fang.com/xiaoqu/bj/1010217345.html","latitude":"39.897857666015625","longtitude":"116.35124969482422","second hand trading":"80","build time":"1992","address":"天宁寺前街手帕口北街路口以东50米路南"}
{"_id":{"$oid":"58ffd06a5e986a07088a79e0"},"average price":"146172","second hand resource":"295","court":"裕中西里","district":"西城","house type":"住宅","href":"https://m.fang.com/xiaoqu/bj/1010000500.html","latitude":"39.97872543334961","longtitude":"116.3917236328125","second hand trading":"627","build time":"1993","address":"北三环中路北侧,裕民路南侧"}
{"_id":{"$oid":"58ffd06e5e986a07088a79e1"},"average price":"126197","second hand resource":"31","court":"月坛西街乙2号院","district":"西城","house type":"住宅","href":"https://m.fang.com/xiaoqu/bj/1010591513.html","latitude":"39.92328643798828","longtitude":"116.3568115234375","second hand trading":"90","build time":"1990","address":"西城区月坛西街乙2号院"}
{"_id":{"$oid":"58ffd0725e986a07088a79e2"},"average price":"100808","second hand resource":"10","court":"里仁街","district":"西城","house type":"住宅","href":"https://m.fang.com/xiaoqu/bj/1010216953.html","latitude":"39.88291549682617","longtitude":"116.37792205810547","second hand trading":"47","build time":"1995","address":"里仁街3号院"}
{"_id":{"$oid":"58ffd0795e986a07088a79e3"},"average price":"110951","second hand resource":"53","court":"民康胡同小区","district":"西城","house type":"住宅","href":"https://m.fang.com/xiaoqu/bj/1010390257.html","latitude":"39.928558349609375","longtitude":"116.36697387695312","second hand trading":"13","build time":"1996","address":"阜成门桥东南角"}
{"_id":{"$oid":"58ffd07d5e986a07088a79e4"},"average price":"111524","second hand resource":"284","court":"西便门住宅区","district":"西城","house type":"住宅","href":"https://m.fang.com/xiaoqu/bj/1010001438.html","latitude":"39.904762268066406","longtitude":"116.35701751708984","second hand trading":"173","build time":"2000","address":"西便门内大街与莲花池东路交叉口北行150米路西"}
{"_id":{"$oid":"58ffd07f5e986a07088a79e5"},"average price":"124916","second hand resource":"791","court":"畅柳园","district":"西城","house type":"住宅","href":"https://m.fang.com/xiaoqu/bj/1010170405.html","latitude":"39.88833236694336","longtitude":"116.39005279541016","second hand trading":"315","build time":"2004","address":"南华街10号院(虎坊路南横街东口,陶然亭公园北门)"}
{"_id":{"$oid":"58ffd0805e986a07088a79e6"},"average price":"105046","second hand resource":"62","court":"西便门外大街七号院","district":"西城","house type":"住宅","href":"https://m.fang.com/xiaoqu/bj/1010605463.html","latitude":"39.90809631347656","longtitude":"116.35909271240234","second hand trading":"142","build time":"1970","address":"西便门外大街七号院"}
{"_id":{"$oid":"58ffd08a5e986a07088a79e7"},"average price":"103004","second hand resource":"6","court":"椿树馆街35号院","district":"西城","house type":"住宅","href":"https://m.fang.com/xiaoqu/bj/1010606463.html","latitude":"39.889583587646484","longtitude":"116.35287475585938","second hand trading":"1","build time":"1985","address":"广安门外椿树馆35号院"}
{"_id":{"$oid":"58ffd08d5e986a07088a79e8"},"average price":"122761","second hand resource":"50","court":"百万庄中里","district":"西城","house type":"住宅","href":"https://m.fang.com/xiaoqu/bj/1010611707.html","latitude":"39.93449401855469","longtitude":"116.34485626220703","second hand trading":"102","build time":"1988","address":"百万庄大街北,展览路第一小学附近"}
{"_id":{"$oid":"58ffd08e5e986a07088a79e9"},"average price":"128615","second hand resource":"114","court":"车公庄中里小区","district":"西城","house type":"住宅","href":"https://m.fang.com/xiaoqu/bj/1010215407.html","latitude":"39.93892288208008","longtitude":"116.34940338134766","second hand trading":"67","build time":"1998","address":"展览馆路与车公庄西路交叉口"}
{"_id":{"$oid":"58ffd0915e986a07088a79ea"},"average price":"116521","second hand resource":"21","court":"禄长街头条","district":"西城","house type":"住宅","href":"https://m.fang.com/xiaoqu/bj/1010122759.html","latitude":"39.888587951660156","longtitude":"116.39714813232422","second hand trading":"NULL","build time":"NULL","address":"禄长街头条"}
{"_id":{"$oid":"58ffd0975e986a07088a79eb"},"average price":"102866","second hand resource":"190","court":"牛街东里","district":"西城","house type":"住宅","href":"https://m.fang.com/xiaoqu/bj/1010217121.html","latitude":"39.89256286621094","longtitude":"116.37234497070312","second hand trading":"341","build time":"1999","address":"西城区教子胡同与输入胡同交界处西北角(西城区第二图书馆西侧)"}
{"_id":{"$oid":"58ffd0975e986a07088a79ec"},"average price":"120252","second hand resource":"169","court":"枫桦豪景","district":"西城","house type":"住宅","href":"https://m.fang.com/xiaoqu/bj/1010216853.html","latitude":"39.89393615722656","longtitude":"116.3786849975586","second hand trading":"75","build time":"2001","address":"广安门内大街6号 (宣武门外大街西80米)"}
{"_id":{"$oid":"58ffd0985e986a07088a79ed"},"average price":"92406","second hand resource":"75","court":"锦上","district":"西城","house type":"住宅","href":"https://m.fang.com/xiaoqu/bj/1010179383.html","latitude":"39.89905548095703","longtitude":"116.35812377929688","second hand trading":"67","build time":"2001","address":"核桃园西街37号院"}
{"_id":{"$oid":"58ffd0995e986a07088a79ee"},"average price":"106680","second hand resource":"3","court":"源屋曲","district":"西城","house type":"住宅","href":"https://m.fang.com/xiaoqu/bj/1010062904.html","latitude":"39.88639831542969","longtitude":"116.35432434082031","second hand trading":"39","build time":"2004","address":"广安门南滨河路27号院"}
{"_id":{"$oid":"58ffd09d5e986a07088a79ef"},"average price":"125298","second hand resource":"312","court":"红山世家","district":"西城","house type":"住宅","href":"https://m.fang.com/xiaoqu/bj/1010208217.html","latitude":"39.9013786315918","longtitude":"116.34022521972656","second hand trading":"127","build time":"2013","address":"广安门外大街305号"}
{"_id":{"$oid":"58ffd0a15e986a07088a79f0"},"average price":"98564","second hand resource":"19","court":"城建宿舍","district":"西城","house type":"住宅","href":"https://m.fang.com/xiaoqu/bj/1010611383.html","latitude":"39.9530029296875","longtitude":"116.37004089355469","second hand trading":"54","build time":"2000","address":"德胜门西大街7号院"}
{"_id":{"$oid":"58ffd0a25e986a07088a79f1"},"average price":"99892","second hand resource":"40","court":"西华经典","district":"西城","house type":"住宅","href":"https://m.fang.com/xiaoqu/bj/1010000247.html","latitude":"39.8946533203125","longtitude":"116.36742401123047","second hand trading":"31","build time":"2000","address":"广安门内大街南、牛街西(报国寺对面)"}
{"_id":{"$oid":"58ffd0a45e986a07088a79f2"},"average price":"96726","second hand resource":"42","court":"时代之光","district":"西城","house type":"住宅","href":"https://m.fang.com/xiaoqu/bj/1010008131.html","latitude":"39.955406188964844","longtitude":"116.36164855957031","second hand trading":"143","build time":"2001","address":"西直门北大街45号"}
{"_id":{"$oid":"58ffd0a65e986a07088a79f3"},"average price":"133966","second hand resource":"72","court":"冠英园","district":"西城","house type":"住宅","href":"https://m.fang.com/xiaoqu/bj/1010001305.html","latitude":"39.94446563720703","longtitude":"116.37242126464844","second hand trading":"184","build time":"1999","address":"西直门内大街赵登禹路西侧"}
{"_id":{"$oid":"58ffd0aa5e986a07088a79f4"},"average price":"82527","second hand resource":"63","court":"嘉莲苑","district":"西城","house type":"住宅","href":"https://m.fang.com/xiaoqu/bj/1010013313.html","latitude":"39.88126754760742","longtitude":"116.34546661376953","second hand trading":"89","build time":"2002","address":"莲花河东侧路1号院"}
{"_id":{"$oid":"58ffd0ab5e986a07088a79f5"},"average price":"124916","second hand resource":"792","court":"南华里","district":"西城","house type":"住宅","href":"https://m.fang.com/xiaoqu/bj/1010170405.html","latitude":"39.88833236694336","longtitude":"116.39005279541016","second hand trading":"315","build time":"2004","address":"南华街10号院(虎坊路南横街东口,陶然亭公园北门)"}
{"_id":{"$oid":"58ffd0ac5e986a07088a79f6"},"average price":"96726","second hand resource":"42","court":"时代之光名苑","district":"西城","house type":"住宅","href":"https://m.fang.com/xiaoqu/bj/1010008131.html","latitude":"39.955406188964844","longtitude":"116.36164855957031","second hand trading":"143","build time":"2001","address":"西直门北大街45号"}
{"_id":{"$oid":"58ffd0ac5e986a07088a79f7"},"average price":"148811","second hand resource":"67","court":"京畿道小区","district":"西城","house type":"住宅","href":"https://m.fang.com/xiaoqu/bj/1010216019.html","latitude":"39.916038513183594","longtitude":"116.37372589111328","second hand trading":"125","build time":"1994","address":"中京畿道与太平桥大街路口以东100米"}
{"_id":{"$oid":"58ffd0b05e986a07088a79f8"},"average price":"96082","second hand resource":"22","court":"樱桃二条","district":"西城","house type":"住宅","href":"https://m.fang.com/xiaoqu/bj/1010653743.html","latitude":"39.887081146240234","longtitude":"116.3681640625","second hand trading":"52","build time":"2005","address":"白广路东侧樱桃二条8号"}
{"_id":{"$oid":"58ffd0b15e986a07088a79f9"},"average price":"98409","second hand resource":"43","court":"考拉社区","district":"西城","house type":"住宅","href":"https://m.fang.com/xiaoqu/bj/1010135543.html","latitude":"39.882102966308594","longtitude":"116.35302734375","second hand trading":"239","build time":"2007","address":"鸭子桥路21号(白纸坊桥西100米)"}
{"_id":{"$oid":"58ffd0b45e986a07088a79fa"},"average price":"111173","second hand resource":"233","court":"西豪逸景","district":"西城","house type":"住宅","href":"https://m.fang.com/xiaoqu/bj/1010037033.html","latitude":"39.89839172363281","longtitude":"116.3476791381836","second hand trading":"187","build time":"2004","address":"广外大街小马厂一巷1号院(手帕口北街西侧)"}
{"_id":{"$oid":"58ffd0b65e986a07088a79fb"},"average price":"114783","second hand resource":"74","court":"华龙美钰","district":"西城","house type":"住宅","href":"https://m.fang.com/xiaoqu/bj/1010718309.html","latitude":"39.87751770019531","longtitude":"116.37413787841797","second hand trading":"51","build time":"2013","address":"南二环半步桥60号"}
{"_id":{"$oid":"58ffd0ba5e986a07088a79fc"},"average price":"135334","second hand resource":"206","court":"国英园","district":"西城","house type":"住宅","href":"https://m.fang.com/xiaoqu/bj/1010215931.html","latitude":"39.93967056274414","longtitude":"116.36482238769531","second hand trading":"83","build time":"1997","address":"西直门南小街,车公庄地铁站东北角"}
{"_id":{"$oid":"58ffd0be5e986a07088a79fd"},"average price":"102971","second hand resource":"29","court":"樱桃源","district":"西城","house type":"住宅","href":"https://m.fang.com/xiaoqu/bj/1010074392.html","latitude":"39.888465881347656","longtitude":"116.37014770507812","second hand trading":"2","build time":"2004","address":"右内大街白纸坊西街交叉口西南樱桃二条"}
{"_id":{"$oid":"58ffd0be5e986a07088a79fe"},"average price":"91479","second hand resource":"8","court":"泰和嘉苑","district":"西城","house type":"住宅","href":"https://m.fang.com/xiaoqu/bj/1010027053.html","latitude":"39.889583587646484","longtitude":"116.36834716796875","second hand trading":"21","build time":"2001","address":"枣林前街21号"}
{"_id":{"$oid":"58ffd0c05e986a07088a79ff"},"average price":"125307","second hand resource":"287","court":"康乐里","district":"西城","house type":"住宅","href":"https://m.fang.com/xiaoqu/bj/1010216937.html","latitude":"39.901161193847656","longtitude":"116.37317657470703","second hand trading":"57","build time":"2002","address":"广安门内下斜街与储库营胡同交叉处东南角(康乐里小学西侧)"}
{"_id":{"$oid":"58ffd0c45e986a07088a7a00"},"average price":"98011","second hand resource":"172","court":"红莲晴园","district":"西城","house type":"住宅","href":"https://m.fang.com/xiaoqu/bj/1010000939.html","latitude":"39.888336181640625","longtitude":"116.33885955810547","second hand trading":"74","build time":"2003","address":"广安门外马连道东街15号"}
{"_id":{"$oid":"58ffd0c55e986a07088a7a01"},"average price":"83117","second hand resource":"51","court":"依莲轩","district":"西城","house type":"住宅","href":"https://m.fang.com/xiaoqu/bj/1010000243.html","latitude":"39.890380859375","longtitude":"116.33442687988281","second hand trading":"85","build time":"2001","address":"西城区广安门外马连道南街1号院"}
{"_id":{"$oid":"58ffd0c65e986a07088a7a02"},"average price":"85449","second hand resource":"40","court":"广华轩","district":"西城","house type":"住宅","href":"https://m.fang.com/xiaoqu/bj/1010001275.html","latitude":"39.896575927734375","longtitude":"116.34654998779297","second hand trading":"40","build time":"1998","address":"西城区广安门桥西"}
{"_id":{"$oid":"58ffd0c75e986a07088a7a03"},"average price":"102971","second hand resource":"28","court":"南樱桃园小区","district":"西城","house type":"住宅","href":"https://m.fang.com/xiaoqu/bj/1010074392.html","latitude":"39.888465881347656","longtitude":"116.37014770507812","second hand trading":"2","build time":"2004","address":"右内大街白纸坊西街交叉口西南樱桃二条"}
{"_id":{"$oid":"58ffd0ca5e986a07088a7a04"},